Facility Code,Facility Name,Health Facility Type,Ownership Major Classification,Region Name,Region PSGC,Province Name,Province PSGC,City/Municipality Name,City/Municipality PSGC,Barangay Name,Barangay PSGC,Latitude,Longitude
DOH000000000000992,BONUAN BOQUIG BARANGAY HEALTH STATION,Barangay Health Station,Government,REGION I (ILOCOS REGION),0100000000,PANGASINAN,0105500000,CITY OF DAGUPAN,0105518000,BONUAN BOQUIG,0105518008,16.076203,120.356446
DOH000000000000986,BINALAY BARANGAY HEALTH STATION,Barangay Health Station,Government,REGION I (ILOCOS REGION),0100000000,PANGASINAN,0105500000,MALASIQUI,0105524000,BINALAY,0105524017,15.907353,120.429621
DOH000000000000981,BIEC BARANGAY HEALTH STATION,Barangay Health Station,Government,REGION I (ILOCOS REGION),0100000000,PANGASINAN,0105500000,BINMALEY,0105513000,BIEC,0105513007,16.020957,120.273209
DOH000000000000978,BERSAMIN BARANGAY HEALTH STATION,Barangay Health Station,Government,REGION I (ILOCOS REGION),010000000,PANGASINAN,010550000,ALCALA,010550400,BERSAMIN,0105504004,15.814972,120.554021
DOH000000000000976,BAYBAY LOPEZ BARANGAY HEALTH STATION,Barangay Health Station,Government,REGION I (ILOCOS REGION),0100000000,PANGASINAN,0105500000,BINMALEY,0105513000,BAYBAY LOPEZ,0105513005,16.037392,120.257554
DOH000000000000975,BAYAOAS BARANGAY HEALTH STATION,Barangay Health Station,Government,REGION I (ILOCOS REGION),0100000000,PANGASINAN,0105500000,URBIZTONDO,0105545000,BAYAOAS,0105545005,15.8329176,120.3534821
DOH000000000000971,BATCHELOR WEST BARANGAY HEALTH STATION,Barangay Health Station,Government,REGION I (ILOCOS REGION),010000000,PANGASINAN,010550000,NATIVIDAD,010552900,BATCHELOR WEST,0105529004,16.050401,120.814564
DOH000000000000962,BANZAL BARANGAY HEALTH STATION,Barangay Health Station,Government,REGION I (ILOCOS REGION),0100000000,PANGASINAN,0105500000,SANTA BARBARA,0105538000,BANZAL,0105538004,16.007936,120.437736
DOH000000000000960,BANAOANG BARANGAY HEALTH STATION,Barangay Health Station,Government,REGION I (ILOCOS REGION),0100000000,PANGASINAN,0105500000,SANTA BARBARA,0105538000,BANAOANG,0105538003,15.990459,120.436531
DOH000000000000958,BALINGASAY BARANGAY HEALTH STATION,Barangay Health Station,Government,REGION I (ILOCOS REGION),0100000000,PANGASINAN,0105500000,BOLINAO,0105514000,BALINGASAY,0105514002,16.357704,119.860255
DOH000000000000955,BALANGOBONG BARANGAY HEALTH STATION,Barangay Health Station,Government,REGION I (ILOCOS REGION),0100000000,PANGASINAN,0105500000,BINALONAN,0105512000,BALANGOBONG,0105512001,16.0158615,120.5991898
DOH000000000009529,AGUILAR RURAL HEALTH UNIT,Rural Health Unit,Government,REGION I (ILOCOS REGION),010000000,PANGASINAN,010550000,AGUILAR,010550200,POBLACION,0105502011,15.888372,120.239032
DOH000000000009526,NAMATUCAN BARANGAY HEALTH STATION,Barangay Health Station,Government,REGION I (ILOCOS REGION),0100000000,PANGASINAN,0105500000,AGNO,0105501000,NAMATUCAN,0105501012,16.052522,119.810783
DOH000000000009520,ALLABON BARANGAY HEALTH STATION,Barangay Health Station,Government,REGION I (ILOCOS REGION),0100000000,PANGASINAN,0105500000,AGNO,0105501000,ALLABON,0105501001,,
DOH000000000009516,BARUAN BARANGAY HEALTH STATION,Barangay Health Station,Government,REGION I (ILOCOS REGION),0100000000,PANGASINAN,0105500000,AGNO,0105501000,BARUAN,0105501004,16.019439,119.772973
DOH000000000009504,GAYUSAN BARANGAY HEALTH STATION,Barangay Health Station,Government,REGION I (ILOCOS REGION),0100000000,PANGASINAN,0105500000,AGNO,0105501000,GAYUSAN,0105501009,16.054087,119.783817
DOH000000000009494,ALOLENG BARANGAY HEALTH STATION,Barangay Health Station,Government,REGION I (ILOCOS REGION),010000000,PANGASINAN,010550000,AGNO,010550100,ALOLENG,0105501002,16.1223755,119.7839355
DOH000000000000949,BACAG BARANGAY HEALTH STATION,Barangay Health Station,Government,REGION I (ILOCOS REGION),010000000,PANGASINAN,010550000,VILLASIS,010554700,BACAG,0105547002,15.930623,120.580806
DOH000000000009488,DANGLEY BARANGAY HEALTH STATION,Barangay Health Station,Government,REGION I (ILOCOS REGION),0100000000,PANGASINAN,0105500000,AGNO,0105501000,DANGLEY,0105501007,16.112091,119.794581
DOH000000000009479,MACABOBONI BARANGAY HEALTH STATION,Barangay Health Station,Government,REGION I (ILOCOS REGION),010000000,PANGASINAN,010550000,AGNO,010550100,MACABOBONI,0105501010,,
DOH000000000000947,ASERDA BARANGAY HEALTH CENTER,Barangay Health Station,Government,REGION I (ILOCOS REGION),0100000000,PANGASINAN,0105500000,MAPANDAN,0105528000,ASERDA,0105528003,16.022899,120.462115
DOH000000000009468,PATAR BARANGAY HEALTH STATION,Barangay Health Station,Government,REGION I (ILOCOS REGION),0100000000,PANGASINAN,0105500000,AGNO,0105501000,PATAR,0105501013,16.158819,119.809553
DOH000000000000946,ASAN SUR BARANGAY HEALTH STATION,Barangay Health Station,Government,REGION I (ILOCOS REGION),0100000000,PANGASINAN,0105500000,SISON,0105541000,ASAN SUR,0105541006,16.1549034,120.5158844
DOH000000000009459,VIGA BARANGAY HEALTH STATION,Barangay Health Station,Government,REGION I (ILOCOS REGION),010000000,PANGASINAN,010550000,AGNO,010550100,VIGA,0105501018,,
DOH000000000009446,CAYUNGNAN BARANGAY HEALTH STATION,Barangay Health Station,Government,REGION I (ILOCOS REGION),0100000000,PANGASINAN,0105500000,AGNO,0105501000,CAYUNGNAN,0105501006,16.132495,119.838315
DOH000000000000944,ARAMAL BARANGAY HEALTH STATION,Barangay Health Station,Government,REGION I (ILOCOS REGION),0100000000,PANGASINAN,0105500000,SAN FABIAN,0105533000,ARAMAL,0105533004,16.123871,120.434657
DOH000000000009439,SAN JUAN BARANGAY HEALTH STATION,Barangay Health Station,Government,REGION I (ILOCOS REGION),0100000000,PANGASINAN,0105500000,AGNO,0105501000,SAN JUAN,0105501016,,
DOH000000000000943,APAYA BARANGAY HEALTH CENTER,Barangay Health Station,Government,REGION I (ILOCOS REGION),0100000000,PANGASINAN,0105500000,MAPANDAN,0105528000,APAYA,0105528002,16.023563,120.445689
DOH000000000009428,BANGAN-ODA BARANGAY HEALTH STATION,Barangay Health Station,Government,REGION I (ILOCOS REGION),0100000000,PANGASINAN,0105500000,AGNO,0105501000,BANGAN-ODA,0105501003,16.109353,119.829037
DOH000000000000942,APAYA BARANGAY HEALTH STATION,Barangay Health Station,Government,REGION I (ILOCOS REGION),0100000000,PANGASINAN,0105500000,MALASIQUI,0105524000,APAYA,0105524007,15.893586,120.422498
DOH000000000009409,POBLACION EAST BARANGAY HEALTH STATION,Barangay Health Station,Government,REGION I (ILOCOS REGION),0100000000,PANGASINAN,0105500000,AGNO,0105501000,POBLACION EAST,0105501014,,
DOH000000000000940,ANOLID BARANGAY HEALTH STATION,Barangay Health Station,Government,REGION I (ILOCOS REGION),0100000000,PANGASINAN,0105500000,MALASIQUI,0105524000,ANOLID,0105524006,15.8962164,120.4112265
DOH000000000009386,BOLINGIT BARANGAY HEALTH STATION,Barangay Health Station,Government,REGION I (ILOCOS REGION),010000000,PANGASINAN,010550000,CITY OF SAN CARLOS,010553200,BOLINGIT,0105532018,15.9559088,120.348877
DOH000000000000938,AMANOAOAC HEALTH FACILITY,Barangay Health Station,Government,REGION I (ILOCOS REGION),0100000000,PANGASINAN,0105500000,MAPANDAN,0105528000,AMANOAOAC,0105528001,16.01699,120.44538
DOH000000000000937,AMANCOSILING NORTE BARANGAY HEALTH STATION,Barangay Health Station,Government,REGION I (ILOCOS REGION),010000000,PANGASINAN,010550000,BAYAMBANG,010551100,AMANCOSILING NORTE,0105511003,15.781562,120.455524
DOH000000000000936,ALOS BARANGAY HEALTH STATION,Barangay Health Station,Government,REGION I (ILOCOS REGION),010000000,PANGASINAN,010550000,CITY OF ALAMINOS,010550300,ALOS,0105503001,16.1016998,119.9645004
DOH000000000009351,CRUZ BARANGAY HEALTH STATION,Barangay Health Station,Government,REGION I (ILOCOS REGION),010000000,PANGASINAN,010550000,CITY OF SAN CARLOS,010553200,CRUZ,0105532031,15.9629002,120.3495865
DOH000000000009340,MABINI BARANGAY HEALTH STATION,Barangay Health Station,Government,REGION I (ILOCOS REGION),010000000,PANGASINAN,010550000,CITY OF SAN CARLOS,010553200,MABINI (POB.),0105532046,15.9274178,120.3490829
DOH000000000009337,QUEZON BARANGAY HEALTH STATION,Barangay Health Station,Government,REGION I (ILOCOS REGION),0100000000,PANGASINAN,0105500000,CITY OF SAN CARLOS,0105532000,QUEZON BOULEVARD (POB.),0105532073,15.9303179,120.353981
DOH000000000009332,RIZAL BARANGAY HEALTH STATION,Barangay Health Station,Government,REGION I (ILOCOS REGION),0100000000,PANGASINAN,0105500000,CITY OF SAN CARLOS,0105532000,RIZAL (POB.),0105532075,15.9309177,120.3459854
DOH000000000009330,PEREZ BOULEVARD BARANGAY HEALTH STATION,Barangay Health Station,Government,REGION I (ILOCOS REGION),0100000000,PANGASINAN,0105500000,CITY OF SAN CARLOS,0105532000,PEREZ BOULEVARD (POB.),0105532071,15.9259996,120.3518372
DOH000000000009326,TANDANG SORA BARANGAY HEALTH STATION,Barangay Health Station,Government,REGION I (ILOCOS REGION),0100000000,PANGASINAN,0105500000,CITY OF SAN CARLOS,0105532000,TANDANG SORA,0105532092,15.9291945,120.3499603
DOH000000000009319,PNR SITE BARANGAY HEALTH STATION,Barangay Health Station,Government,REGION I (ILOCOS REGION),0100000000,PANGASINAN,0105500000,CITY OF SAN CARLOS,0105532000,PNR STATION SITE,0105532081,15.9313107,120.3510895
DOH000000000009314,PALARIS BARANGAY HEALTH STATION,Barangay Health Station,Government,REGION I (ILOCOS REGION),0100000000,PANGASINAN,0105500000,CITY OF SAN CARLOS,0105532000,PALARIS (POB.),0105532061,15.9253178,120.3449783
DOH000000000009308,PADILLA-GOMEZ BARANGAY HEALTH STATION,Barangay Health Station,Government,REGION I (ILOCOS REGION),0100000000,PANGASINAN,0105500000,CITY OF SAN CARLOS,0105532000,PADILLA-GOMEZ,0105532057,15.9180956,120.3471832
DOH000000000009303,BUGALLON-POSADAS STREET BARANGAY HEALTH STATION,Barangay Health Station,Government,REGION I (ILOCOS REGION),010000000,PANGASINAN,010550000,CITY OF SAN CARLOS,010553200,BUGALLON-POSADAS STREET (POB.),0105532016,15.9274969,120.3458405
DOH000000000009295,INERANGAN BARANGAY HEALTH STATION,Barangay Health Station,Government,REGION I (ILOCOS REGION),010000000,PANGASINAN,010550000,CITY OF SAN CARLOS,010553200,INERANGAN,0105532038,15.9601173,120.3664856
DOH000000000009286,BALAYONG BARANGAY HEALTH STATION,Barangay Health Station,Government,REGION I (ILOCOS REGION),010000000,PANGASINAN,010550000,CITY OF SAN CARLOS,010553200,BALAYONG,0105532009,15.9492178,120.3427811
DOH000000000009269,M. SORIANO BARANGAY HEALTH STATION,Barangay Health Station,Government,REGION I (ILOCOS REGION),010000000,PANGASINAN,010550000,CITY OF SAN CARLOS,010553200,M. SORIANO,0105532091,15.9246178,120.3477783
DOH000000000009263,NELINTAP BARANGAY HEALTH STATION,Barangay Health Station,Government,REGION I (ILOCOS REGION),010000000,PANGASINAN,010550000,CITY OF SAN CARLOS,010553200,NILENTAP,0105532056,15.9544306,120.367157
DOH000000000000926,NATIVIDAD RURAL HEALTH UNIT,Rural Health Unit,Government,REGION I (ILOCOS REGION),010000000,PANGASINAN,010550000,NATIVIDAD,010552900,POBLACION EAST,0105529011,16.0430508,120.7973328
DOH000000000009254,MATAGDEM BARANGAY HEALTH STATION,Barangay Health Station,Government,REGION I (ILOCOS REGION),010000000,PANGASINAN,010550000,CITY OF SAN CARLOS,010553200,MATAGDEM,0105532053,15.9531174,120.3547821
DOH000000000009244,LILIMASAN BARANGAY HEALTH STATION,Barangay Health Station,Government,REGION I (ILOCOS REGION),010000000,PANGASINAN,010550000,CITY OF SAN CARLOS,010553200,LILIMASAN,0105532041,15.9338102,120.3786316
DOH000000000000924,MANGALDAN RURAL HEALTH UNIT I,Rural Health Unit,Government,REGION I (ILOCOS REGION),0100000000,PANGASINAN,0105500000,MANGALDAN,0105526000,POBLACION,0105526025,16.071063,120.405412
DOH000000000009237,BEGA BARANGAY HEALTH STATION,Barangay Health Station,Government,REGION I (ILOCOS REGION),010000000,PANGASINAN,010550000,CITY OF SAN CARLOS,010553200,BEGA,0105532014,15.9305429,120.3613739
DOH000000000000923,LINGAYEN RURAL HEALTH UNIT I,Rural Health Unit,Government,REGION I (ILOCOS REGION),0100000000,PANGASINAN,0105500000,LINGAYEN (CAPITAL),0105522000,POBLACION,0105522028,16.0191176,120.2306821
DOH000000000009226,PALOSPOS BARANGAY HEALTH STATION,Barangay Health Station,Government,REGION I (ILOCOS REGION),010000000,PANGASINAN,010550000,CITY OF SAN CARLOS,010553200,PALOSPOS,0105532062,15.8668861,120.3617249
DOH000000000000922,BINMALEY RURAL HEALTH UNIT I INFIRMARY,Rural Health Unit,Government,REGION I (ILOCOS REGION),0100000000,PANGASINAN,0105500000,BINMALEY,0105513000,POBLACION,0105513026,16.0263176,120.2686821
DOH000000000009218,BALITE SUR BARANGAY HEALTH STATION,Barangay Health Station,Government,REGION I (ILOCOS REGION),010000000,PANGASINAN,010550000,CITY OF SAN CARLOS,010553200,BALITE SUR,0105532011,15.8778343,120.3611908
DOH000000000009212,LONGOS BARANGAY HEALTH STATION,Barangay Health Station,Government,REGION I (ILOCOS REGION),010000000,PANGASINAN,010550000,CITY OF SAN CARLOS,010553200,LONGOS,0105532043,15.9250393,120.3575821
DOH000000000009200,SAN CARLOS CITY RURAL HEALTH UNIT IV,Rural Health Unit,Government,REGION I (ILOCOS REGION),010000000,PANGASINAN,010550000,CITY OF SAN CARLOS,010553200,MAGTAKING,0105532047,15.9144392,120.361145
DOH000000000009193,ANO BARANGAY HEALTH STATION,Barangay Health Station,Government,REGION I (ILOCOS REGION),010000000,PANGASINAN,010550000,CITY OF SAN CARLOS,010553200,ANO,0105532004,15.9513979,120.3805923
DOH000000000009181,TARECE BARANGAY HEALTH STATION,Barangay Health Station,Government,REGION I (ILOCOS REGION),010000000,PANGASINAN,010550000,CITY OF SAN CARLOS,010553200,TARECE,0105532086,15.9385071,120.3624344
DOH000000000009175,PAYAPA BARANGAY HEALTH STATION,Barangay Health Station,Government,REGION I (ILOCOS REGION),010000000,PANGASINAN,010550000,CITY OF SAN CARLOS,010553200,PAYAPA,0105532069,15.9101038,120.3815002
DOH000000000009171,TARECTEC BARANGAY HEALTH STATION,Barangay Health Station,Government,REGION I (ILOCOS REGION),010000000,PANGASINAN,010550000,CITY OF SAN CARLOS,010553200,TARECTEC,0105532087,15.8975964,120.387352
DOH000000000009166,COBOL BARANGAY HEALTH STATION,Barangay Health Station,Government,REGION I (ILOCOS REGION),010000000,PANGASINAN,010550000,CITY OF SAN CARLOS,010553200,COBOL,0105532029,15.9016399,120.3905029
DOH000000000009155,COLILING BARANGAY HEALTH STATION,Barangay Health Station,Government,REGION I (ILOCOS REGION),010000000,PANGASINAN,010550000,CITY OF SAN CARLOS,010553200,COLILING,0105532030,15.9204102,120.3747864
DOH000000000009151,ILANG BARANGAY HEALTH STATION,Barangay Health Station,Government,REGION I (ILOCOS REGION),010000000,PANGASINAN,010550000,CITY OF SAN CARLOS,010553200,ILANG,0105532037,15.9193048,120.3559036
DOH000000000009141,TAYAMBANI BARANGAY HEALTH STATION,Barangay Health Station,Government,REGION I (ILOCOS REGION),010000000,PANGASINAN,010550000,CITY OF SAN CARLOS,010553200,TAYAMBANI,0105532088,15.8998175,120.3082809
DOH000000000009135,MALIWARA BARANGAY HEALTH STATION,Barangay Health Station,Government,REGION I (ILOCOS REGION),010000000,PANGASINAN,010550000,CITY OF SAN CARLOS,010553200,MALIWARA,0105532050,15.8984175,120.3128815
DOH000000000009132,BALAYA BARANGAY HEALTH STATION,Barangay Health Station,Government,REGION I (ILOCOS REGION),010000000,PANGASINAN,010550000,CITY OF SAN CARLOS,010553200,BALAYA,0105532008,15.9202175,120.2902832
DOH000000000009126,GAMATA BARANGAY HEALTH STATION,Barangay Health Station,Government,REGION I (ILOCOS REGION),010000000,PANGASINAN,010550000,CITY OF SAN CARLOS,010553200,GAMATA,0105532035,15.9264174,120.301384
DOH000000000009118,PANGOLOAN BARANGAY HEALTH STATION,Barangay Health Station,Government,REGION I (ILOCOS REGION),010000000,PANGASINAN,010550000,CITY OF SAN CARLOS,010553200,PANGOLOAN,0105532064,15.9265175,120.316185
DOH000000000009110,SAN JUAN BARANGAY HEALTH STATION,Barangay Health Station,Government,REGION I (ILOCOS REGION),010000000,PANGASINAN,010550000,CITY OF SAN CARLOS,010553200,SAN JUAN,0105532078,15.9147177,120.3302841
DOH000000000009105,BALDOG BARANGAY HEALTH STATION,Barangay Health Station,Government,REGION I (ILOCOS REGION),010000000,PANGASINAN,010550000,CITY OF SAN CARLOS,010553200,BALDOG,0105532010,15.9073172,120.3193817
DOH000000000009098,ISLA BARANGAY HEALTH STATION,Barangay Health Station,Government,REGION I (ILOCOS REGION),010000000,PANGASINAN,010550000,CITY OF SAN CARLOS,010553200,ISLA,0105532039,15.8943176,120.3022842
DOH000000000009093,APONIT BARANGAY HEALTH STATION,Barangay Health Station,Government,REGION I (ILOCOS REGION),010000000,PANGASINAN,010550000,CITY OF SAN CARLOS,010553200,APONIT,0105532006,15.8991175,120.2867813
DOH000000000009087,ANTIPANGOL BARANGAY HEALTH STATION,Barangay Health Station,Government,REGION I (ILOCOS REGION),010000000,PANGASINAN,010550000,CITY OF SAN CARLOS,010553200,ANTIPANGOL,0105532005,15.9317179,120.2719803
DOH000000000009083,MABALBALINO BARANGAY HEALTH STATION,Barangay Health Station,Government,REGION I (ILOCOS REGION),010000000,PANGASINAN,010550000,CITY OF SAN CARLOS,010553200,MABALBALINO,0105532045,15.9153175,120.2591858
DOH000000000009075,BOGAOAN BARANGAY HEALTH STATION,Barangay Health Station,Government,REGION I (ILOCOS REGION),010000000,PANGASINAN,010550000,CITY OF SAN CARLOS,010553200,BOGAOAN,0105532017,15.9097176,120.2685852
DOH000000000009073,BANI BARANGAY HEALTH STATION,Barangay Health Station,Government,REGION I (ILOCOS REGION),010000000,PANGASINAN,010550000,CITY OF SAN CARLOS,010553200,BANI,0105532013,15.9010172,120.2637787
DOH000000000009069,BOCBOC BARANGAY HEALTH STATION,Barangay Health Station,Government,REGION I (ILOCOS REGION),010000000,PANGASINAN,010550000,CITY OF SAN CARLOS,010553200,BOCBOC,0105532015,15.8885174,120.2612839
DOH000000000009067,TAMAYO BARANGAY HEALTH STATION,Barangay Health Station,Government,REGION I (ILOCOS REGION),010000000,PANGASINAN,010550000,CITY OF SAN CARLOS,010553200,TAMAYO,0105532084,15.8806171,120.28508
DOH000000000009061,SALINAP BARANGAY HEALTH STATION,Barangay Health Station,Government,REGION I (ILOCOS REGION),010000000,PANGASINAN,010550000,CITY OF SAN CARLOS,010553200,SALINAP,0105532077,15.8875179,120.272583
DOH000000000009056,BUENGLAT BARANGAY HEALTH STATION,Barangay Health Station,Government,REGION I (ILOCOS REGION),010000000,PANGASINAN,010550000,CITY OF SAN CARLOS,010553200,BUENGLAT,0105532021,15.9085178,120.3084793
DOH000000000009049,CAINGAL BARANGAY HEALTH STATION,Barangay Health Station,Government,REGION I (ILOCOS REGION),010000000,PANGASINAN,010550000,CITY OF SAN CARLOS,010553200,CAINGAL,0105532024,15.9113176,120.3459821
DOH000000000009045,CAOAYAN-KILING BARANGAY HEALTH STATION,Barangay Health Station,Government,REGION I (ILOCOS REGION),010000000,PANGASINAN,010550000,CITY OF SAN CARLOS,010553200,CAOAYAN-KILING,0105532028,15.8556176,120.3231821
DOH000000000009038,ANANDO BARANGAY HEALTH STATION,Barangay Health Station,Government,REGION I (ILOCOS REGION),010000000,PANGASINAN,010550000,CITY OF SAN CARLOS,010553200,ANANDO,0105532003,15.8690176,120.3137821
DOH000000000009020,SUPO BARANGAY HEALTH STATION,Barangay Health Station,Government,REGION I (ILOCOS REGION),010000000,PANGASINAN,010550000,CITY OF SAN CARLOS,010553200,SUPO,0105532082,15.8379176,120.2958821
DOH000000000009017,GUELEW BARANGAY HEALTH STATION,Barangay Health Station,Government,REGION I (ILOCOS REGION),010000000,PANGASINAN,010550000,CITY OF SAN CARLOS,010553200,GUELEW,0105532036,15.8527174,120.3071823
DOH000000000009012,BOLOSAN BARANGAY HEALTH STATION,Barangay Health Station,Government,REGION I (ILOCOS REGION),010000000,PANGASINAN,010550000,CITY OF SAN CARLOS,010553200,BOLOSAN,0105532019,15.9019176,120.3439821
DOH000000000009001,POLO BARANGAY HEALTH STATION,Barangay Health Station,Government,REGION I (ILOCOS REGION),010000000,PANGASINAN,010550000,CITY OF SAN CARLOS,010553200,POLO,0105532072,15.8954176,120.3217821
DOH000000000008987,TEBAG BARANGAY HEALTH STATION,Barangay Health Station,Government,REGION I (ILOCOS REGION),010000000,PANGASINAN,010550000,CITY OF SAN CARLOS,010553200,TEBAG,0105532089,15.8995176,120.3322821
DOH000000000000898,CAPULAAN BARANGAY HEALTH STATION,Barangay Health Station,Government,REGION I (ILOCOS REGION),010000000,PANGASINAN,010550000,VILLASIS,010554700,CAPULAAN,0105547005,15.899733,120.539956
DOH000000000008973,BACNAR BARANGAY HEALTH STATION,Barangay Health Station,Government,REGION I (ILOCOS REGION),010000000,PANGASINAN,010550000,CITY OF SAN CARLOS,010553200,BACNAR,0105532007,15.8877176,120.3426821
DOH000000000008956,PAYAR BARANGAY HEALTH STATION,Barangay Health Station,Government,REGION I (ILOCOS REGION),010000000,PANGASINAN,010550000,CITY OF SAN CARLOS,010553200,PAYAR,0105532070,15.8894176,120.3105821
DOH000000000008945,MALACANANG BARANGAY HEALTH STATION,Barangay Health Station,Government,REGION I (ILOCOS REGION),010000000,PANGASINAN,010550000,CITY OF SAN CARLOS,010553200,MALACA?ANG,0105532048,15.9180176,120.3347821
DOH000000000008943,NAGUILYAN BARANGAY HEALTH STATION,Barangay Health Station,Government,REGION I (ILOCOS REGION),010000000,PANGASINAN,010550000,CITY OF SAN CARLOS,010553200,NAGUILAYAN,0105532055,15.959712,120.337873
DOH000000000008935,CAPATAAN BARANGAY HEALTH STATION,Barangay Health Station,Government,REGION I (ILOCOS REGION),010000000,PANGASINAN,010550000,CITY OF SAN CARLOS,010553200,CAPATAAN,0105532027,15.949322,120.310791
DOH000000000008917,BONIFACIO BARANGAY HEALTH STATION,Barangay Health Station,Government,REGION I (ILOCOS REGION),010000000,PANGASINAN,010550000,CITY OF SAN CARLOS,010553200,BONIFACIO (POB.),0105532020,15.923957,120.343887
DOH000000000008910,BURGOS BARANGAY HEALTH STATION,Barangay Health Station,Government,REGION I (ILOCOS REGION),010000000,PANGASINAN,010550000,CITY OF SAN CARLOS,010553200,BURGOS PADLAN (POB.),0105532022,15.92675,120.3452167
DOH000000000000891,BANI MAIN HEALTH CENTER II,Barangay Health Station,Government,REGION I (ILOCOS REGION),0100000000,PANGASINAN,0105500000,BANI,0105508000,SAN JOSE,0105508019,16.213099,119.865184
DOH000000000008899,SAN PEDRO BARANGAY HEALTH STATION,Barangay Health Station,Government,REGION I (ILOCOS REGION),010000000,PANGASINAN,010550000,CITY OF SAN CARLOS,010553200,SAN PEDRO-TALOY,0105532079,15.926322,120.341008
DOH000000000008889,CACARITAN BARANGAY HEALTH STATION,Barangay Health Station,Government,REGION I (ILOCOS REGION),010000000,PANGASINAN,010550000,CITY OF SAN CARLOS,010553200,CACARITAN,0105532023,15.94213,120.337784
DOH000000000008887,PAGAL BARANGAY HEALTH STATION,Barangay Health Station,Government,REGION I (ILOCOS REGION),010000000,PANGASINAN,010550000,CITY OF SAN CARLOS,010553200,PAGAL,0105532058,15.950137,120.332032
DOH000000000008884,QUINTONG BARANGAY HEALTH STATION,Barangay Health Station,Government,REGION I (ILOCOS REGION),010000000,PANGASINAN,010550000,CITY OF SAN CARLOS,010553200,QUINTONG,0105532074,15.962401,120.319604
DOH000000000008881,TANDOC BARANGAY HEALTH STATION,Barangay Health Station,Government,REGION I (ILOCOS REGION),010000000,PANGASINAN,010550000,CITY OF SAN CARLOS,010553200,TANDOC,0105532085,15.958654,120.328615
DOH000000000008880,LUCBAN BARANGAY HEALTH STATION,Barangay Health Station,Government,REGION I (ILOCOS REGION),010000000,PANGASINAN,010550000,CITY OF SAN CARLOS,010553200,LUCBAN (POB.),0105532044,15.928599,120.344785
DOH000000000008877,PANGPANG BARANGAY HEALTH STATION,Barangay Health Station,Government,REGION I (ILOCOS REGION),010000000,PANGASINAN,010550000,CITY OF SAN CARLOS,010553200,PANGPANG,0105532065,15.938969,120.310861
DOH000000000008876,PANGALANGAN BARANGAY HEALTH STATION,Barangay Health Station,Government,REGION I (ILOCOS REGION),010000000,PANGASINAN,010550000,CITY OF SAN CARLOS,010553200,PANGALANGAN,0105532063,15.952746,120.319427
DOH000000000008868,MAMARLAO BARANGAY HEALTH STATION,Barangay Health Station,Government,REGION I (ILOCOS REGION),010000000,PANGASINAN,010550000,CITY OF SAN CARLOS,010553200,MAMARLAO,0105532051,15.92912,120.322873
DOH000000000008864,TURAC BARANGAY HEALTH STATION,Barangay Health Station,Government,REGION I (ILOCOS REGION),0100000000,PANGASINAN,0105500000,CITY OF SAN CARLOS,0105532000,TURAC,0105532090,15.8966589,120.3722992
DOH000000000008861,SAN CARLOS CITY RURAL HEALTH UNIT III,Rural Health Unit,Government,REGION I (ILOCOS REGION),0100000000,PANGASINAN,0105500000,CITY OF SAN CARLOS,0105532000,TALANG,0105532083,15.9044167,120.3078
DOH000000000008795,SAN CARLOS CITY RURAL HEALTH UNIT II,Rural Health Unit,Government,REGION I (ILOCOS REGION),010000000,PANGASINAN,010550000,CITY OF SAN CARLOS,010553200,AGDAO,0105532002,15.9147176,120.3302821
DOH000000000008773,SAN CARLOS CITY RURAL HEALTH UNIT I,Rural Health Unit,Government,REGION I (ILOCOS REGION),010000000,PANGASINAN,010550000,CITY OF SAN CARLOS,010553200,ROXAS BOULEVARD (POB.),0105532076,15.9337,120.3462333
DOH000000000000865,MANGALDAN RURAL HEALTH UNIT II,Rural Health Unit,Government,REGION I (ILOCOS REGION),0100000000,PANGASINAN,0105500000,MANGALDAN,0105526000,BANTAYAN,0105526005,16.090824,120.390377
DOH000000000000864,MALASIQUI RURAL HEALTH UNIT II,Rural Health Unit,Government,REGION I (ILOCOS REGION),0100000000,PANGASINAN,0105500000,MALASIQUI,0105524000,DON PEDRO,0105524031,15.887071,120.42989
DOH000000000008584,AMANDIEGO BARANGAY HEALTH STATION,Barangay Health Station,Government,REGION I (ILOCOS REGION),010000000,PANGASINAN,010550000,CITY OF ALAMINOS,010550300,AMANDIEGO,0105503002,16.1369991,119.9682999
DOH000000000007697,ROSALES RURAL HEALTH UNIT,Rural Health Unit,Government,REGION I (ILOCOS REGION),0100000000,PANGASINAN,0105500000,ROSALES,0105531000,ZONE V (POB.),0105531039,15.891458,120.63243
DOH000000000007696,BAYAMBANG RURAL HEALTH UNIT I,Rural Health Unit,Government,REGION I (ILOCOS REGION),010000000,PANGASINAN,010550000,BAYAMBANG,010551100,ZONE I (POB.),0105511073,15.809854,120.455965
DOH000000000007647,TALOGTOG BARANGAY HEALTH STATION,Barangay Health Station,Government,REGION I (ILOCOS REGION),0100000000,PANGASINAN,0105500000,MANGATAREM,0105527000,TALOGTOG,0105527077,15.7616176,120.3210821
DOH000000000007633,SAN VICENTE BARANGAY HEALTH STATION,Barangay Health Station,Government,REGION I (ILOCOS REGION),0100000000,PANGASINAN,0105500000,SAN MANUEL,0105535000,SAN VICENTE,0105535016,16.0652351,120.7074585
DOH000000000007632,SAN VICENTE EAST BARANGAY HEALTH STATION,Barangay Health Station,Government,REGION I (ILOCOS REGION),010000000,PANGASINAN,010550000,ASINGAN,010550600,SAN VICENTE ESTE,0105506018,16.029003,120.668027
DOH000000000007624,SAN ROQUE BARANGAY HEALTH STATION,Barangay Health Station,Government,REGION I (ILOCOS REGION),0100000000,PANGASINAN,0105500000,SAN MANUEL,0105535000,SAN ROQUE,0105535015,16.1048431,120.6790771
DOH000000000007623,SAN ROQUE BARANGAY HEALTH STATION,Barangay Health Station,Government,REGION I (ILOCOS REGION),0100000000,PANGASINAN,0105500000,SAN JACINTO,0105534000,SAN ROQUE,0105534017,16.05301,120.439979
DOH000000000007618,SAN RAFAEL CENTRO BARANGAY HEALTH STATION,Barangay Health Station,Government,REGION I (ILOCOS REGION),0100000000,PANGASINAN,0105500000,SAN NICOLAS,0105536000,SAN RAFAEL CENTRO,0105536028,16.065031,120.737161
DOH000000000007612,SAN PEDRO BARANGAY HEALTH STATION,Barangay Health Station,Government,REGION I (ILOCOS REGION),0100000000,PANGASINAN,0105500000,SAN QUINTIN,0105537000,SAN PEDRO,0105537020,15.964605,120.797931
DOH000000000007598,SAN MIGUEL BARANGAY HEALTH STATION,Barangay Health Station,Government,REGION I (ILOCOS REGION),010000000,PANGASINAN,010550000,NATIVIDAD,010552900,SAN MIGUEL,0105529020,16.021158,120.8038
DOH000000000007595,SAN MIGUEL BARANGAY HEALTH STATION,Barangay Health Station,Government,REGION I (ILOCOS REGION),0100000000,PANGASINAN,0105500000,CALASIAO,0105517000,SAN MIGUEL,0105517022,16.014501,120.359665
DOH000000000007592,SAN MACARIO NORTE BARANGAY HEALTH STATION,Barangay Health Station,Government,REGION I (ILOCOS REGION),010000000,PANGASINAN,010550000,NATIVIDAD,010552900,SAN MACARIO NORTE,0105529017,16.022749,120.825018
DOH000000000007589,SANLIBO BARANGAY HEALTH STATION,Barangay Health Station,Government,REGION I (ILOCOS REGION),010000000,PANGASINAN,010550000,BAYAMBANG,010551100,SANLIBO,0105511060,15.799079,120.384944
DOH000000000007587,SAN JULIAN BARANGAY HEALTH STATION,Barangay Health Station,Government,REGION I (ILOCOS REGION),0100000000,PANGASINAN,0105500000,MALASIQUI,0105524000,SAN JULIAN,0105524066,15.86976,120.436605
DOH000000000007584,SAN FELIPE CENTRAL BARANGAY HEALTH STATION,Barangay Health Station,Government,REGION I (ILOCOS REGION),0100000000,PANGASINAN,0105500000,BINALONAN,0105512000,SAN FELIPE CENTRAL,0105512016,16.0578709,120.6238098
DOH000000000007579,PALGUYOD BARANGAY HEALTH STATION,Barangay Health Station,Government,REGION I (ILOCOS REGION),0100000000,PANGASINAN,0105500000,POZORRUBIO,0105530000,PALGUYOD,0105530025,16.1230335,120.522316
DOH000000000007552,BALOCOC BARANGAY HEALTH STATION,Barangay Health Station,Government,REGION I (ILOCOS REGION),010000000,PANGASINAN,010550000,CITY OF SAN CARLOS,010553200,BALOCOC,0105532012,15.9105177,120.3031845
DOH000000000007549,ALIAGA BARANGAY HEALTH STATION,Barangay Health Station,Government,REGION I (ILOCOS REGION),0100000000,PANGASINAN,0105500000,MALASIQUI,0105524000,ALIAGA,0105524004,15.889494,120.447874
DOH000000000007479,BOLINAO COMMUNITY HOSPITAL,Hospital,Government,REGION I (ILOCOS REGION),010000000,PANGASINAN,010550000,BOLINAO,010551400,SAMPALOC,0105514026,16.2678165,119.8788757
DOH000000000007045,SAN FABIAN RURAL HEALTH UNIT II,Rural Health Unit,Government,REGION I (ILOCOS REGION),0100000000,PANGASINAN,0105500000,SAN FABIAN,0105533000,MABILAO,0105533015,16.15753,120.426291
DOH000000000007027,CABAYAOASAN BARANGAY HEALTH STATION,Barangay Health Station,Government,REGION I (ILOCOS REGION),0100000000,PANGASINAN,0105500000,MANGATAREM,0105527000,CABAYAOASAN,0105527023,15.7707176,120.3876821
DOH000000000000007,LAUREN BARANGAY HEALTH STATION,Barangay Health Station,Government,REGION I (ILOCOS REGION),0100000000,PANGASINAN,0105500000,UMINGAN,0105544000,LAUREN,0105544033,15.943342,120.842639
DOH000000000006969,SAWAT BARANGAY HEALTH STATION,Barangay Health Station,Government,REGION I (ILOCOS REGION),0100000000,PANGASINAN,0105500000,URBIZTONDO,0105545000,SAWAT,0105545021,15.8007176,120.3338821
DOH000000000006957,MERMER BARANGAY HEALTH STATION,Barangay Health Station,Government,REGION I (ILOCOS REGION),0100000000,PANGASINAN,0105500000,MANAOAG,0105525000,MERMER,0105525030,16.018307,120.486705
DOH000000000006952,MALASIQUI MAIN HEALTH CENTER,Barangay Health Station,Government,REGION I (ILOCOS REGION),0100000000,PANGASINAN,0105500000,MALASIQUI,0105524000,POBLACION,0105524062,15.919648,120.412398
DOH000000000006928,CANAOALAN BARANGAY HEALTH STATION,Barangay Health Station,Government,REGION I (ILOCOS REGION),0100000000,PANGASINAN,0105500000,BINMALEY,0105513000,CANAOALAN,0105513013,16.029404,120.297068
DOH000000000006922,ATAINAN BARANGAY HEALTH STATION,Barangay Health Station,Government,REGION I (ILOCOS REGION),010000000,PANGASINAN,010550000,ALCALA,010550400,ATAINAN,0105504003,15.849723,120.475025
DOH000000000006871,PANGASINAN DOCTORS HOSPITAL,Hospital,Private,REGION I (ILOCOS REGION),010000000,PANGASINAN,010550000,CITY OF SAN CARLOS,010553200,RIZAL (POB.),0105532075,15.9403172,120.3449783
DOH000000000006866,SABALLA-ROSARIO MEDICAL CLINIC,Infirmary,Private,REGION I (ILOCOS REGION),010000000,PANGASINAN,010550000,BINALONAN,010551200,POBLACION,0105512015,16.0490589,120.5913086
DOH000000000006861,VELASQUEZ MEDICAL CLINIC AND HOSPITAL,Infirmary,Private,REGION I (ILOCOS REGION),010000000,PANGASINAN,010550000,MANGATAREM,010552700,MABINI (POB.),0105527044,15.7887173,120.2921829
DOH000000000006817,OLEA BARANGAY HEALTH STATION,Barangay Health Station,Government,REGION I (ILOCOS REGION),0100000000,PANGASINAN,0105500000,MALASIQUI,0105524000,OLEA,0105524054,15.861677,120.485978
DOH000000000006814,BURGOS MUNICIPAL HEALTH OFFICE,Rural Health Unit,Government,REGION I (ILOCOS REGION),0100000000,PANGASINAN,0105500000,BURGOS,0105516000,POBLACION,0105516007,16.059386,119.864283
DOH000000000006785,RHU I MAIN HEALTH CENTER,Barangay Health Station,Government,REGION I (ILOCOS REGION),0100000000,PANGASINAN,0105500000,BANI,0105508000,POBLACION,0105508015,16.187551,119.859192
DOH000000000006750,SUAL RURAL HEALTH UNIT,Rural Health Unit,Government,REGION I (ILOCOS REGION),010000000,PANGASINAN,010550000,SUAL,010554200,POBLACION,0105542014,16.0652847,120.0953598
DOH000000000006749,MUNICIPAL HEALTH OFFICE RURAL HEALTH UNIT I CALASIAO,Rural Health Unit,Government,REGION I (ILOCOS REGION),0100000000,PANGASINAN,0105500000,CALASIAO,0105517000,POBLACION EAST,0105517018,16.008411,120.359429
DOH000000000006747,ANDA RURAL HEALTH UNIT,Rural Health Unit,Government,REGION I (ILOCOS REGION),0100000000,PANGASINAN,0105500000,ANDA,0105505000,POBLACION,0105505014,16.289314,119.948235
DOH000000000006727,ASIN ESTE BARANGAY HEALTH STATION,Barangay Health Station,Government,REGION I (ILOCOS REGION),0100000000,PANGASINAN,0105500000,MALASIQUI,0105524000,ASIN ESTE,0105524008,15.960867,120.468712
DOH000000000006708,PRO-CARE MEDICAL CLINIC AND INFIRMARY,Infirmary,Private,REGION I (ILOCOS REGION),0100000000,PANGASINAN,0105500000,BALUNGAO,0105507000,PUGARO,0105507009,15.897741,120.67429
DOH000000000006640,TONTON BARANGAY HEALTH STATION,Barangay Health Station,Government,REGION I (ILOCOS REGION),0100000000,PANGASINAN,0105500000,LINGAYEN (CAPITAL),0105522000,TONTON,0105522033,16.0271176,120.2504821
DOH000000000006508,MAPANDAN RURAL HEALTH UNIT,Rural Health Unit,Government,REGION I (ILOCOS REGION),0100000000,PANGASINAN,0105500000,MAPANDAN,0105528000,POBLACION,0105528014,16.02593,120.454397
DOH000000000006507,BINALONAN RURAL HEALTH UNIT,Rural Health Unit,Government,REGION I (ILOCOS REGION),0100000000,PANGASINAN,0105500000,BINALONAN,0105512000,POBLACION,0105512015,16.0496216,120.5919418
DOH000000000006338,VILLEGAS BARANGAY HEALTH STATION,Barangay Health Station,Government,REGION I (ILOCOS REGION),0100000000,PANGASINAN,0105500000,POZORRUBIO,0105530000,VILLEGAS,0105530034,16.1288013,120.5599289
DOH000000000006336,PALISOC BARANGAY HEALTH STATION,Barangay Health Station,Government,REGION I (ILOCOS REGION),010000000,PANGASINAN,010550000,BAUTISTA,010551000,PALISOC,0105510011,15.81325,120.4901
DOH000000000006335,UYONG BARANGAY HEALTH STATION,Barangay Health Station,Government,REGION I (ILOCOS REGION),010000000,PANGASINAN,010550000,LABRADOR,010552100,UYONG,0105521010,16.049956,120.119327
DOH000000000006323,SOBOL BARANGAY HEALTH STATION,Barangay Health Station,Government,REGION I (ILOCOS REGION),0100000000,PANGASINAN,0105500000,SAN NICOLAS,0105536000,SOBOL,0105536036,16.0531998,120.7450027
DOH000000000006293,POBLACION BARANGAY HEALTH STATION,Barangay Health Station,Government,REGION I (ILOCOS REGION),0100000000,PANGASINAN,0105500000,SUAL,0105542000,POBLACION,0105542014,16.06539,120.095386
DOH000000000006288,PANGANIBAN BARANGAY HEALTH STATION,Barangay Health Station,Government,REGION I (ILOCOS REGION),0100000000,PANGASINAN,0105500000,TAYUG,0105543000,PANGANIBAN,0105543013,16.00738,120.777038
DOH000000000006267,MATALAVA BARANGAY HEALTH STATION,Barangay Health Station,Government,REGION I (ILOCOS REGION),0100000000,PANGASINAN,0105500000,LINGAYEN (CAPITAL),0105522000,MATALAVA,0105522022,16.0096176,120.2519821
DOH000000000006258,MALAWA BARANGAY HEALTH STATION,Barangay Health Station,Government,REGION I (ILOCOS REGION),0100000000,PANGASINAN,0105500000,LINGAYEN (CAPITAL),0105522000,MALAWA,0105522019,15.9584176,120.2789821
DOH000000000006256,MALACA BARANGAY HEALTH STATION,Barangay Health Station,Government,REGION I (ILOCOS REGION),0100000000,PANGASINAN,0105500000,URBIZTONDO,0105545000,MALACA,0105545012,15.8385176,120.3725821
DOH000000000006255,MALABOBO BARANGAY HEALTH STATION,Barangay Health Station,Government,REGION I (ILOCOS REGION),0100000000,PANGASINAN,0105500000,MANGATAREM,0105527000,MALABOBO,0105527046,15.7156176,120.3194821
DOH000000000006231,DOMINGO ALARCIO (CABILAOAN EAST) BARANGAY HEALTH STATION,Barangay Health Station,Government,REGION I (ILOCOS REGION),0100000000,PANGASINAN,0105500000,LAOAC,0105548000,DOMINGO ALARCIO,0105548004,16.019271,120.550665
DOH000000000006218,CAMANTILES BARANGAY HEALTH STATION,Barangay Health Station,Government,REGION I (ILOCOS REGION),010000000,PANGASINAN,010550000,CITY OF URDANETA,010554600,CAMANTILES,0105546012,15.989296,120.546265
DOH000000000006205,CABATUAN BARANGAY HEALTH STATION,Barangay Health Station,Government,REGION I (ILOCOS REGION),0100000000,PANGASINAN,0105500000,UMINGAN,0105544000,CABATUAN,0105544012,15.899345,120.851029
DOH000000000006197,BOBONOT BARANGAY HEALTH STATION,Barangay Health Station,Government,REGION I (ILOCOS REGION),0100000000,PANGASINAN,0105500000,DASOL,0105519000,BOBONOT,0105519003,16.0060333,119.8741167
DOH000000000006190,BALUYOT BARANGAY HEALTH STATION,Barangay Health Station,Government,REGION I (ILOCOS REGION),010000000,PANGASINAN,010550000,BAUTISTA,010551000,BALUYOT,0105510021,15.794946,120.461835
DOH000000000006175,AMARONAN BARANGAY HEALTH STATION,Barangay Health Station,Government,REGION I (ILOCOS REGION),0100000000,PANGASINAN,0105500000,UMINGAN,0105544000,AMARONAN,0105544003,15.958725,120.834926
DOH000000000006162,MANGALDAN MAIN HEALTH CENTER I,Barangay Health Station,Government,REGION I (ILOCOS REGION),010000000,PANGASINAN,010550000,MANGALDAN,010552600,POBLACION,0105526025,16.071063,120.405412
DOH000000000006139,SAN JACINTO RURAL HEALTH UNIT,Rural Health Unit,Government,REGION I (ILOCOS REGION),0100000000,PANGASINAN,0105500000,SAN JACINTO,0105534000,CAPAOAY (POB.),0105534003,16.073028,120.438142
DOH000000000006103,BANI RURAL HEALTH UNIT II,Rural Health Unit,Government,REGION I (ILOCOS REGION),0100000000,PANGASINAN,0105500000,BANI,0105508000,SAN JOSE,0105508019,16.213099,119.865184
DOH000000000005948,MANGATAREM RURAL HEALTH UNIT I,Rural Health Unit,Government,REGION I (ILOCOS REGION),010000000,PANGASINAN,010550000,MANGATAREM,010552700,GENERAL LUNA (POB.),0105527039,15.7887176,120.2921821
DOH000000000005939,ASINGAN COMMUNITY HOSPITAL,Hospital,Government,REGION I (ILOCOS REGION),010000000,PANGASINAN,010550000,ASINGAN,010550600,DUPAC,0105506013,16.0167103,120.6745453
DOH000000000005833,ZON II BARANGAY HEALTH STATION,Barangay Health Station,Government,REGION I (ILOCOS REGION),010000000,PANGASINAN,010550000,BAYAMBANG,010551100,ZONE II (POB.),0105511074,15.8103583,120.4641502
DOH000000000005829,EASTERN PANGASINAN DISTRICT HOSPITAL,Hospital,Government,REGION I (ILOCOS REGION),010000000,PANGASINAN,010550000,TAYUG,010554300,MAGALLANES,0105543012,16.0190468,120.7424393
DOH000000000005816,AMBALANGAN-DALIN BARANGAY HEALTH STATION,Barangay Health Station,Government,REGION I (ILOCOS REGION),0100000000,PANGASINAN,0105500000,SAN FABIAN,0105533000,AMBALANGAN-DALIN,0105533001,16.147609,120.473827
DOH000000000005814,SAN NICOLAS RURAL HEALTH UNIT,Rural Health Unit,Government,REGION I (ILOCOS REGION),0100000000,PANGASINAN,0105500000,SAN NICOLAS,0105536000,POBLACION WEST,0105536021,16.069623,120.760663
DOH000000000005803,VILLANUEVA BARANGAY HEALTH STATION,Barangay Health Station,Government,REGION I (ILOCOS REGION),010000000,PANGASINAN,010550000,BAUTISTA,010551000,VILLANUEVA,0105510020,15.79367,120.554272
DOH000000000005802,TURKO BARANGAY HEALTH STATION,Barangay Health Station,Government,REGION I (ILOCOS REGION),0100000000,PANGASINAN,0105500000,LAOAC,0105548000,TURKO,0105548019,16.070836,120.540309
DOH000000000005790,PITA BARANGAY HEALTH STATION,Barangay Health Station,Government,REGION I (ILOCOS REGION),010000000,PANGASINAN,010550000,INFANTA,010552000,PITA,0105520011,,
DOH000000000005789,THE MEDICAL CITY PANGASINAN,Hospital,Private,REGION I (ILOCOS REGION),010000000,PANGASINAN,010550000,CITY OF DAGUPAN,010551800,PANTAL,0105518022,16.0461407,120.3404388
DOH000000000005782,LAOAC RURAL HEALTH UNIT,Rural Health Unit,Government,REGION I (ILOCOS REGION),0100000000,PANGASINAN,0105500000,LAOAC,0105548000,POBLACION,0105548013,16.047493,120.546594
DOH000000000005774,UMANDO BARANGAY HEALTH STATION,Barangay Health Station,Government,REGION I (ILOCOS REGION),0100000000,PANGASINAN,0105500000,MALASIQUI,0105524000,UMANDO,0105524075,15.867472,120.461921
DOH000000000005773,PISUAC BARANGAY HEALTH STATION,Barangay Health Station,Government,REGION I (ILOCOS REGION),0100000000,PANGASINAN,0105500000,URBIZTONDO,0105545000,PISUAC,0105545017,15.8026176,120.3548821
DOH000000000005768,NALSIAN BARANGAY HEALTH STATION,Barangay Health Station,Government,REGION I (ILOCOS REGION),0100000000,PANGASINAN,0105500000,MANAOAG,0105525000,NALSIAN,0105525031,16.031822,120.503466
DOH000000000005767,LUYAN BARANGAY HEALTH STATION,Barangay Health Station,Government,REGION I (ILOCOS REGION),0100000000,PANGASINAN,0105500000,MAPANDAN,0105528000,LUYAN,0105528010,16.01458,120.472639
DOH000000000005750,RICOS BARANGAY HEALTH STATION,Barangay Health Station,Government,REGION I (ILOCOS REGION),0100000000,PANGASINAN,0105500000,UMINGAN,0105544000,RICOS,0105544050,15.867933,120.841585
DOH000000000005740,BALOLING BARANGAY HEALTH STATION,Barangay Health Station,Government,REGION I (ILOCOS REGION),0100000000,PANGASINAN,0105500000,MAPANDAN,0105528000,BALOLING,0105528004,16.03876,120.455886
DOH000000000005721,BALANGAY BARANGAY HEALTH STATION,Barangay Health Station,Government,REGION I (ILOCOS REGION),0100000000,PANGASINAN,0105500000,URBIZTONDO,0105545000,BALANGAY,0105545002,15.8527176,120.3646821
DOH000000000005707,ALAC BARANGAY HEALTH STATION,Barangay Health Station,Government,REGION I (ILOCOS REGION),0100000000,PANGASINAN,0105500000,SAN QUINTIN,0105537000,ALAC,0105537001,15.987637,120.80665
DOH000000000005686,INFANTA RURAL HEALTH UNIT,Rural Health Unit,Government,REGION I (ILOCOS REGION),0100000000,PANGASINAN,0105500000,INFANTA,0105520000,POBLACION,0105520012,15.826292,119.905987
DOH000000000005663,PONGLO-BALEG BARANGAY HEALTH STATION,Barangay Health Station,Government,REGION I (ILOCOS REGION),0100000000,PANGASINAN,0105500000,MANGATAREM,0105527000,PONGLO-BALEG,0105527067,15.7990176,120.2643821
DOH000000000005605,NAGUELGUEL BARANGAY HEALTH STATION,Barangay Health Station,Government,REGION I (ILOCOS REGION),0100000000,PANGASINAN,0105500000,LINGAYEN (CAPITAL),0105522000,NAGUELGUEL,0105522023,16.0020176,120.2476821
DOH000000000005590,TUPA BARANGAY HEALTH STATION,Barangay Health Station,Government,REGION I (ILOCOS REGION),010000000,PANGASINAN,010550000,AGNO,010550100,TUPA,0105501017,,
DOH000000000005536,PALARIS BARANGAY HEALTH STATION,Barangay Health Station,Government,REGION I (ILOCOS REGION),010000000,PANGASINAN,010550000,ASINGAN,010550600,PALARIS,0105506015,16.0299672,120.6246966
DOH000000000005535,OSIEM BARANGAY HEALTH STATION,Barangay Health Station,Government,REGION I (ILOCOS REGION),0100000000,PANGASINAN,0105500000,MANGALDAN,0105526000,OSIEM,0105526023,16.058843,120.422578
DOH000000000005532,LIPIT-TOMEENG BARANGAY HEALTH STATION,Barangay Health Station,Government,REGION I (ILOCOS REGION),0100000000,PANGASINAN,0105500000,SAN FABIAN,0105533000,LIPIT-TOMEENG,0105533027,16.15571,120.440613
DOH000000000005529,BUENLAG BARANGAY HEALTH STATION,Barangay Health Station,Government,REGION I (ILOCOS REGION),0100000000,PANGASINAN,0105500000,CALASIAO,0105517000,BUENLAG,0105517005,15.9894863,120.3790525
DOH000000000005514,MANCUP BARANGAY HEALTH STATION,Barangay Health Station,Government,REGION I (ILOCOS REGION),0100000000,PANGASINAN,0105500000,CALASIAO,0105517000,MANCUP,0105517015,15.99259,120.361754
DOH000000000005507,DINALAOAN BARANGAY HEALTH STATION,Barangay Health Station,Government,REGION I (ILOCOS REGION),0100000000,PANGASINAN,0105500000,CALASIAO,0105517000,DINALAOAN,0105517007,15.996938,120.344459
DOH000000000005477,BATANG BARANGAY HEALTH STATION,Barangay Health Station,Government,REGION I (ILOCOS REGION),0100000000,PANGASINAN,0105500000,INFANTA,0105520000,BATANG,0105520003,15.863454,119.90849
DOH000000000005449,URDANETA SACRED HEART HOSPITAL,Hospital,Private,REGION I (ILOCOS REGION),0100000000,PANGASINAN,0105500000,CITY OF URDANETA,0105546000,SAN VICENTE,0105546034,15.980668,120.5709518
DOH000000000005447,BUGALLON RURAL HEALTH UNIT II,Rural Health Unit,Government,REGION I (ILOCOS REGION),010000000,PANGASINAN,010550000,BUGALLON,010551500,MAGTAKING,0105515013,15.9863176,120.1824821
DOH000000000005422,RANAO BARANGAY HEALTH STATION,Barangay Health Station,Government,REGION I (ILOCOS REGION),0100000000,PANGASINAN,0105500000,BANI,0105508000,RANAO,0105508017,16.205919,119.814189
DOH000000000005394,PALUA BARANGAY HEALTH STATION,Barangay Health Station,Government,REGION I (ILOCOS REGION),0100000000,PANGASINAN,0105500000,MANGALDAN,0105526000,PALUA,0105526024,16.091316,120.400758
DOH000000000005385,POGONSILI BARANGAY HEALTH STATION,Barangay Health Station,Government,REGION I (ILOCOS REGION),010000000,PANGASINAN,010550000,AGUILAR,010550200,POGONSILI,0105502013,15.820089,120.254647
DOH000000000005344,ANULID BARANGAY HEALTH STATION,Barangay Health Station,Government,REGION I (ILOCOS REGION),010000000,PANGASINAN,010550000,ALCALA,010550400,ANULID,0105504001,15.825453,120.486118
DOH000000000005340,BAYAMBANG RURAL HEALTH UNIT II,Rural Health Unit,Government,REGION I (ILOCOS REGION),010000000,PANGASINAN,010550000,BAYAMBANG,010551100,WAWA,0105511072,15.764735,120.448437
DOH000000000005268,SAN GABRIEL 2ND BARANGAY HEALTH STATION,Barangay Health Station,Government,REGION I (ILOCOS REGION),010000000,PANGASINAN,010550000,BAYAMBANG,010551100,SAN GABRIEL 2ND,0105511057,15.761066,120.475741
DOH000000000005262,BONUAN BINLOC BARANGAY HEALTH STATION,Barangay Health Station,Government,REGION I (ILOCOS REGION),0100000000,PANGASINAN,0105500000,CITY OF DAGUPAN,0105518000,BONUAN BINLOC,0105518007,16.100675,120.379969
DOH000000000005261,BARO BARANGAY HEALTH STATION,Barangay Health Station,Government,REGION I (ILOCOS REGION),010000000,PANGASINAN,010550000,ASINGAN,010550600,BARO,0105506005,15.9968755,120.6705849
DOH000000000005260,BOLINAO RHU I MAIN HEALTH CENTER,Barangay Health Station,Government,REGION I (ILOCOS REGION),0100000000,PANGASINAN,0105500000,BOLINAO,0105514000,GERMINAL (POB.),0105514011,16.384742,119.893317
DOH000000000005159,CANAN NORTE BARANGAY HEALTH STATION,Barangay Health Station,Government,REGION I (ILOCOS REGION),0100000000,PANGASINAN,0105500000,MALASIQUI,0105524000,CANAN NORTE,0105524027,15.910944,120.472859
DOH000000000005134,CAROSUCAN NORTE BARANGAY HEALTH STATION,Barangay Health Station,Government,REGION I (ILOCOS REGION),010000000,PANGASINAN,010550000,ASINGAN,010550600,CAROSUCAN NORTE,0105506009,15.9636472,120.6361839
DOH000000000005131,BOLINTAGUEN BARANGAY HEALTH STATION,Barangay Health Station,Government,REGION I (ILOCOS REGION),0100000000,PANGASINAN,0105500000,SAN QUINTIN,0105537000,BOLINTAGUEN,0105537005,15.969614,120.776779
DOH000000000005122,JESUS NAZARENE GENERAL HOSPITAL,Hospital,Private,REGION I (ILOCOS REGION),010000000,PANGASINAN,010550000,LINGAYEN (CAPITAL),010552200,POBLACION,0105522028,16.0146179,120.2319794
DOH000000000005118,TEBAG EAST BARANGAY HEALTH STATION,Barangay Health Station,Government,REGION I (ILOCOS REGION),0100000000,PANGASINAN,0105500000,SANTA BARBARA,0105538000,TEBAG EAST,0105538025,15.980363,120.468214
DOH000000000005116,MANGIN BARANGAY HEALTH STATION,Barangay Health Station,Government,REGION I (ILOCOS REGION),0100000000,PANGASINAN,0105500000,CITY OF DAGUPAN,0105518000,MANGIN,0105518020,16.03619,120.36787
DOH000000000005112,INFANTA MAIN HEALTH CENTER,Barangay Health Station,Government,REGION I (ILOCOS REGION),0100000000,PANGASINAN,0105500000,INFANTA,0105520000,POBLACION,0105520012,15.826302,119.906017
DOH000000000051043,CLINIQUA ALAMINOS MEDICAL AND DIAGNOSTIC CENTER,General Clinical Laboratory,Private,REGION I (ILOCOS REGION),0100000000,PANGASINAN,0105500000,CITY OF ALAMINOS,0105503000,POBLACION,0105503021,,
DOH000000000050969,ST. MARY'S MEDICAL &AMP; DIAGNOSTIC CLINIC,General Clinical Laboratory,Private,REGION I (ILOCOS REGION),0100000000,PANGASINAN,0105500000,MANAOAG,0105525000,POBLACION,0105525039,,
DOH000000000050968,PHILIPPINE RED CROSS PANGASINAN CHAPTER - URDANETA BRANCH,Blood Service Facility,Private,REGION I (ILOCOS REGION),0100000000,PANGASINAN,0105500000,CITY OF URDANETA,0105546000,NANCAYASAN,0105546027,,
DOH000000000050967,WECARE MEDICAL CLINIC AND DIAGNOSTIC CENTER,General Clinical Laboratory,Private,REGION I (ILOCOS REGION),0100000000,PANGASINAN,0105500000,CITY OF ALAMINOS,0105503000,POBLACION,0105503021,,
DOH000000000050965,PHILIPPINE RED CROSS - ALAMINOS CITY WEST PANGASINAN,Blood Service Facility,Private,REGION I (ILOCOS REGION),0100000000,PANGASINAN,0105500000,CITY OF ALAMINOS,0105503000,POBLACION,0105503021,,
DOH000000000050964,PHILIPPINE RED CROSS PANGASINAN - SAN CARLOS,Blood Service Facility,Private,REGION I (ILOCOS REGION),0100000000,PANGASINAN,0105500000,CITY OF SAN CARLOS,0105532000,AGDAO,0105532002,,
DOH000000000005096,TAMBOBONG BARANGAY HEALTH STATION,Barangay Health Station,Government,REGION I (ILOCOS REGION),010000000,PANGASINAN,010550000,DASOL,010551900,TAMBOBONG,0105519017,15.929643,119.78097
DOH000000000050952,GRACIOUS BIRTHING CLINIC,Birthing Home,Private,REGION I (ILOCOS REGION),0100000000,PANGASINAN,0105500000,CITY OF URDANETA,0105546000,SAN VICENTE,0105546034,,
DOH000000000050948,BANI BIRTHING HOME,Birthing Home,Private,REGION I (ILOCOS REGION),0100000000,PANGASINAN,0105500000,BAYAMBANG,0105511000,BANI,0105511013,,
DOH000000000050942,CACHO DENTAL LABORATORY,Occupational Dental Laboratory,Private,REGION I (ILOCOS REGION),0100000000,PANGASINAN,0105500000,CITY OF ALAMINOS,0105503000,POBLACION,0105503021,,
DOH000000000050941,EA DE VERA DENTAL LABORATORY,Occupational Dental Laboratory,Private,REGION I (ILOCOS REGION),0100000000,PANGASINAN,0105500000,CALASIAO,0105517000,SAN MIGUEL,0105517022,,
DOH000000000050940,CV CENDAÑA DENTAL LABORATORY,Occupational Dental Laboratory,Private,REGION I (ILOCOS REGION),0100000000,PANGASINAN,0105500000,CITY OF DAGUPAN,0105518000,BARANGAY II,0105518003,,
DOH000000000050939,DR. MARILOU FERNANDEZ DENTAL CLINIC AND LABORATORY,Occupational Dental Laboratory,Private,REGION I (ILOCOS REGION),0100000000,PANGASINAN,0105500000,CITY OF DAGUPAN,0105518000,BARANGAY II,0105518003,,
DOH000000000050938,JENY DENTAL LABORATORY,Occupational Dental Laboratory,Private,REGION I (ILOCOS REGION),0100000000,PANGASINAN,0105500000,CITY OF DAGUPAN,0105518000,MANGIN,0105518020,,
DOH000000000050937,JOEL F. CENDAÑA DENTAL LABORATORY,Occupational Dental Laboratory,Private,REGION I (ILOCOS REGION),0100000000,PANGASINAN,0105500000,CITY OF DAGUPAN,0105518000,BARANGAY IV,0105518004,,
DOH000000000050936,M.A. DE VERA DENTAL LABORATORY,Occupational Dental Laboratory,Private,REGION I (ILOCOS REGION),0100000000,PANGASINAN,0105500000,CITY OF DAGUPAN,0105518000,BARANGAY IV,0105518004,,
DOH000000000050935,CASIPIT DENTAL INC,Occupational Dental Laboratory,Private,REGION I (ILOCOS REGION),0100000000,PANGASINAN,0105500000,LINGAYEN (CAPITAL),0105522000,TONTON,0105522033,,
DOH000000000050934,A.E. DENTAL LABORATORY,Occupational Dental Laboratory,Private,REGION I (ILOCOS REGION),0100000000,PANGASINAN,0105500000,MANGALDAN,0105526000,POBLACION,0105526025,,
DOH000000000050933,ROWELL DENTAL LABORATORY,Occupational Dental Laboratory,Private,REGION I (ILOCOS REGION),0100000000,PANGASINAN,0105500000,CITY OF SAN CARLOS,0105532000,MAGTAKING,0105532047,,
DOH000000000050932,JERRY DENTAL LABORATORY,Occupational Dental Laboratory,Private,REGION I (ILOCOS REGION),0100000000,PANGASINAN,0105500000,SANTA BARBARA,0105538000,POBLACION SUR,0105538022,,
DOH000000000050931,RHU-II BAYAMBANG CLINICAL LABORATORY,General Clinical Laboratory,Government,REGION I (ILOCOS REGION),0100000000,PANGASINAN,0105500000,BAYAMBANG,0105511000,WAWA,0105511072,,
DOH000000000050926,DANGEL DENTAL LABORATORY,Occupational Dental Laboratory,Private,REGION I (ILOCOS REGION),0100000000,PANGASINAN,0105500000,CITY OF URDANETA,0105546000,POBLACION,0105546032,,
DOH000000000050925,GULOY DENTAL LABORATORY,Occupational Dental Laboratory,Private,REGION I (ILOCOS REGION),0100000000,PANGASINAN,0105500000,CITY OF URDANETA,0105546000,POBLACION,0105546032,,
DOH000000000050924,JOHN PHILIP S. FORTES,Occupational Dental Laboratory,Private,REGION I (ILOCOS REGION),0100000000,PANGASINAN,0105500000,CITY OF URDANETA,0105546000,POBLACION,0105546032,,
DOH000000000050922,MAIQUEZ DENTAL LABORATORY,Occupational Dental Laboratory,Private,REGION I (ILOCOS REGION),0100000000,PANGASINAN,0105500000,CITY OF URDANETA,0105546000,BAYAOAS,0105546005,,
DOH000000000050921,BILGRACE DENTAL LABORATORY,Occupational Dental Laboratory,Private,REGION I (ILOCOS REGION),0100000000,PANGASINAN,0105500000,VILLASIS,0105547000,ZONE I (POB.),0105547013,,
DOH000000000050920,A.M.M DENTAL CLINIC,Occupational Dental Laboratory,Private,REGION I (ILOCOS REGION),0100000000,PANGASINAN,0105500000,CALASIAO,0105517000,POBLACION WEST,0105517019,,
DOH000000000050919,TAB'Z DENTAL LABORATORY,Occupational Dental Laboratory,Private,REGION I (ILOCOS REGION),0100000000,PANGASINAN,0105500000,BANI,0105508000,POBLACION,0105508015,,
DOH000000000050918,SAN QUINTIN POLYCLINIC AND LABORATORY,General Clinical Laboratory,Private,REGION I (ILOCOS REGION),0100000000,PANGASINAN,0105500000,SAN QUINTIN,0105537000,POBLACION ZONE I,0105537022,,
DOH000000000050917,ST. AUGUSTINE DIAGNOSTIC CENTER,General Clinical Laboratory,Government,REGION I (ILOCOS REGION),0100000000,PANGASINAN,0105500000,LINGAYEN (CAPITAL),0105522000,POBLACION,0105522028,,
DOH000000000050916,PINEHERST SPECIALTY CLINIC AND DIAGNOSTIC CENTER,General Clinical Laboratory,Private,REGION I (ILOCOS REGION),0100000000,PANGASINAN,0105500000,TAYUG,0105543000,BARANGAY A (POB.),0105543014,,
DOH000000000050913,SETH MEDICAL DIAGNOSTIC CENTER,General Clinical Laboratory,Private,REGION I (ILOCOS REGION),0100000000,PANGASINAN,0105500000,SANTA BARBARA,0105538000,POBLACION SUR,0105538022,,
DOH000000000050912,MEDITEK MEDICAL CLINIC &AMP; LABORATORY,General Clinical Laboratory,Private,REGION I (ILOCOS REGION),0100000000,PANGASINAN,0105500000,SAN JACINTO,0105534000,GUIBEL,0105534006,,
DOH000000000050911,SAN FABIAN MEDICAL DIAGNOSTIC CENTER,General Clinical Laboratory,Private,REGION I (ILOCOS REGION),0100000000,PANGASINAN,0105500000,SAN FABIAN,0105533000,CAYANGA,0105533010,,
DOH000000000050909,DAGUPAN CITY WATER DISTRICT LABORATORY,Laboratory for Drinking Water Analysis,Government,REGION I (ILOCOS REGION),0100000000,PANGASINAN,0105500000,CITY OF DAGUPAN,0105518000,TAMBAC,0105518030,,
DOH000000000050908,PROVINCIAL WATER BACTERIOLOGICAL LAB.,Laboratory for Drinking Water Analysis,Government,REGION I (ILOCOS REGION),0100000000,PANGASINAN,0105500000,LINGAYEN (CAPITAL),0105522000,POBLACION,0105522028,,
DOH000000000050905,"PANGASINAN SAFE WATER LABORATORY, INC.",Laboratory for Drinking Water Analysis,Private,REGION I (ILOCOS REGION),0100000000,PANGASINAN,0105500000,MALASIQUI,0105524000,TOBOR,0105524068,,
DOH000000000050904,"POZORRUBIO MEDICAL SPECIALIST CLINIC AND DIAGNOSTIC CENTER, INC.",General Clinical Laboratory,Private,REGION I (ILOCOS REGION),0100000000,PANGASINAN,0105500000,POZORRUBIO,0105530000,POBLACION I,0105530026,,
DOH000000000050903,ENVIRONMENTAL HEALTH LABORATORY COOPERATIVE,Laboratory for Drinking Water Analysis,Private,REGION I (ILOCOS REGION),0100000000,PANGASINAN,0105500000,CITY OF URDANETA,0105546000,SAN VICENTE,0105546034,,
DOH000000000050902,SF BLOODLINE MEDICAL LABORATORY,General Clinical Laboratory,Private,REGION I (ILOCOS REGION),0100000000,PANGASINAN,0105500000,MANGATAREM,0105527000,POGON-LOMBOY (POB.),0105527066,,
DOH000000000050901,SAINT DOMINIC DIAGNOSTIC LABORATORY,General Clinical Laboratory,Private,REGION I (ILOCOS REGION),0100000000,PANGASINAN,0105500000,CITY OF SAN CARLOS,0105532000,PEREZ BOULEVARD (POB.),0105532071,,
DOH000000000050900,LAOAC HEALTH HUB AND DIAGNOSTIC CENTER,General Clinical Laboratory,Private,REGION I (ILOCOS REGION),0100000000,PANGASINAN,0105500000,LAOAC,0105548000,BALLIGI,0105548021,,
DOH000000000050899,LINGAYEN CHECKLAB DIAGNOSTIC CENTER,General Clinical Laboratory,Private,REGION I (ILOCOS REGION),0100000000,PANGASINAN,0105500000,LINGAYEN (CAPITAL),0105522000,POBLACION,0105522028,,
DOH000000000050898,STO. NINO DE SANTIAGO DIAGNOSTIC LABORATORY,General Clinical Laboratory,Private,REGION I (ILOCOS REGION),0100000000,PANGASINAN,0105500000,BOLINAO,0105514000,SALUD,0105514023,,
DOH000000000050897,ROSMED DIAGNOSTIC AND SPECIALIST CENTER,General Clinical Laboratory,Private,REGION I (ILOCOS REGION),0100000000,PANGASINAN,0105500000,ROSALES,0105531000,ZONE V (POB.),0105531039,,
DOH000000000050896,ST. REINILDIS MEDICAL CLINIC AND DIAGNOSTIC CENTER,General Clinical Laboratory,Private,REGION I (ILOCOS REGION),0100000000,PANGASINAN,0105500000,CITY OF DAGUPAN,0105518000,BONUAN BOQUIG,0105518008,,
DOH000000000050889,ST. RAPHAEL MEDICAL AND DIAGNOSTIC CENTER,General Clinical Laboratory,Private,REGION I (ILOCOS REGION),0100000000,PANGASINAN,0105500000,AGUILAR,0105502000,POBLACION,0105502011,,
DOH000000000050888,PRUDENTE MEDICAL DIAGNOSTIC CENTER,General Clinical Laboratory,Private,REGION I (ILOCOS REGION),0100000000,PANGASINAN,0105500000,BALUNGAO,0105507000,POBLACION,0105507008,,
DOH000000000050887,"PANGASINAN DIAGNOSTIC AND MEDICAL CLINIC, INC.",General Clinical Laboratory,Private,REGION I (ILOCOS REGION),0100000000,PANGASINAN,0105500000,BAYAMBANG,0105511000,POBLACION SUR,0105511053,,
DOH000000000050886,RICHSTAR CARE CORPORATION DIAGNOSTIC CENTER,General Clinical Laboratory,Private,REGION I (ILOCOS REGION),0100000000,PANGASINAN,0105500000,BAYAMBANG,0105511000,ZONE I (POB.),0105511073,,
DOH000000000050885,Q-CARE DIAGNOSTIC LABORATORY,General Clinical Laboratory,Private,REGION I (ILOCOS REGION),0100000000,PANGASINAN,0105500000,BINALONAN,0105512000,POBLACION,0105512015,,
DOH000000000050884,PRIMELAB DIAGNOSTIC CLINIC,General Clinical Laboratory,Private,REGION I (ILOCOS REGION),0100000000,PANGASINAN,0105500000,BUGALLON,0105515000,POBLACION,0105515016,,
DOH000000000050883,MONTEMAYOR FAMILY MEDICAL CLINIC AND DIAGNOSTIC CENTER,General Clinical Laboratory,Private,REGION I (ILOCOS REGION),0100000000,PANGASINAN,0105500000,CALASIAO,0105517000,AMBONAO,0105517001,,
DOH000000000050882,TANDOC HEALTH CARE,General Clinical Laboratory,Government,REGION I (ILOCOS REGION),0100000000,PANGASINAN,0105500000,CITY OF DAGUPAN,0105518000,CARANGLAAN,0105518012,,
DOH000000000050881,"MEDISENSE LABORATORY CENTER, INC- DAGUPAN CITY",General Clinical Laboratory,Private,REGION I (ILOCOS REGION),0100000000,PANGASINAN,0105500000,CITY OF DAGUPAN,0105518000,BARANGAY I,0105518024,,
DOH000000000050880,"NEW WORLD DIAGNOSTICS, INC.",General Clinical Laboratory,Private,REGION I (ILOCOS REGION),0100000000,PANGASINAN,0105500000,CITY OF DAGUPAN,0105518000,POBLACION OESTE,0105518023,,
DOH000000000050879,SIAPNO HEART AND DIABETES CLINIC LABORATORY,General Clinical Laboratory,Private,REGION I (ILOCOS REGION),0100000000,PANGASINAN,0105500000,CITY OF DAGUPAN,0105518000,POGO CHICO,0105518025,,
DOH000000000050878,SINGAPORE DIAGNOSTICS,General Clinical Laboratory,Private,REGION I (ILOCOS REGION),0100000000,PANGASINAN,0105500000,CITY OF DAGUPAN,0105518000,TAPUAC,0105518031,,
DOH000000000050877,TORA MEDICA DIAGNOSTIC LABORATORY,General Clinical Laboratory,Private,REGION I (ILOCOS REGION),0100000000,PANGASINAN,0105500000,LINGAYEN (CAPITAL),0105522000,BAAY,0105522002,,
DOH000000000050876,LABLIFE LINGAYEN MEDICAL &AMP; DIAGNOSTIC CENTER,General Clinical Laboratory,Private,REGION I (ILOCOS REGION),0100000000,PANGASINAN,0105500000,LINGAYEN (CAPITAL),0105522000,BAAY,0105522002,,
DOH000000000050875,NEW WORLD DIAGNOSTICS INC.,General Clinical Laboratory,Private,REGION I (ILOCOS REGION),0100000000,PANGASINAN,0105500000,LINGAYEN (CAPITAL),0105522000,POBLACION,0105522028,,
DOH000000000050874,PROHEALTH MEDICAL SURGICAL DIAGNOSTIC CLINIC,General Clinical Laboratory,Private,REGION I (ILOCOS REGION),0100000000,PANGASINAN,0105500000,LINGAYEN (CAPITAL),0105522000,POBLACION,0105522028,,
DOH000000000050873,URDUJA GENERAL HOSPITAL CLINICAL LABORATORY,General Clinical Laboratory,Private,REGION I (ILOCOS REGION),0100000000,PANGASINAN,0105500000,LINGAYEN (CAPITAL),0105522000,POBLACION,0105522028,,
DOH000000000050872,MT. HERMON DIAGNOSTIC CENTER,General Clinical Laboratory,Private,REGION I (ILOCOS REGION),0100000000,PANGASINAN,0105500000,MABINI,0105523000,TAGUDIN,0105523018,,
DOH000000000050871,CHRIST- BEARER CLINICAL LABORATORY,General Clinical Laboratory,Private,REGION I (ILOCOS REGION),0100000000,PANGASINAN,0105500000,MALASIQUI,0105524000,CABATLING,0105524022,15.9203501,120.426651
DOH000000000050870,D.R HEALTH MEDICAL AND DIAGNOSTIC CENTER,General Clinical Laboratory,Private,REGION I (ILOCOS REGION),0100000000,PANGASINAN,0105500000,MALASIQUI,0105524000,POBLACION,0105524062,,
DOH000000000050869,PRIME CARE LABORATORIES AND MEDICAL SERVICES INCORPORATED,General Clinical Laboratory,Private,REGION I (ILOCOS REGION),0100000000,PANGASINAN,0105500000,MALASIQUI,0105524000,POBLACION,0105524062,,
DOH000000000050868,SIM LABORATORY &AMP; DIAGNOSTIC CENTER,General Clinical Laboratory,Private,REGION I (ILOCOS REGION),0100000000,PANGASINAN,0105500000,MANAOAG,0105525000,POBLACION,0105525039,,
DOH000000000050866,POZWELL DIAGNOSTIC LABORATORY,General Clinical Laboratory,Private,REGION I (ILOCOS REGION),0100000000,PANGASINAN,0105500000,POZORRUBIO,0105530000,POBLACION I,0105530026,,
DOH000000000050865,PROMEDICA DIAGNOSTIC LABORATORY,General Clinical Laboratory,Private,REGION I (ILOCOS REGION),0100000000,PANGASINAN,0105500000,POZORRUBIO,0105530000,POBLACION I,0105530026,,
DOH000000000050864,QUALICARE MEDICAL &AMP; DIAGNOSTIC CENTER,General Clinical Laboratory,Private,REGION I (ILOCOS REGION),0100000000,PANGASINAN,0105500000,CITY OF SAN CARLOS,0105532000,TALANG,0105532083,,
DOH000000000050863,SAN CARLOS DIAGNOSTIC CENTER,General Clinical Laboratory,Private,REGION I (ILOCOS REGION),0100000000,PANGASINAN,0105500000,CITY OF SAN CARLOS,0105532000,ROXAS BOULEVARD (POB.),0105532076,,
DOH000000000050862,BARTOLOME MEDICAL LABORATORY,General Clinical Laboratory,Private,REGION I (ILOCOS REGION),0100000000,PANGASINAN,0105500000,SANTA BARBARA,0105538000,POBLACION SUR,0105538022,,
DOH000000000050861,PRIME ASSAY MEDICAL AND DIAGNOSTIC CENTER,General Clinical Laboratory,Private,REGION I (ILOCOS REGION),0100000000,PANGASINAN,0105500000,CITY OF URDANETA,0105546000,POBLACION,0105546032,,
DOH000000000050860,SINGAPORE DIAGNOSTICS,General Clinical Laboratory,Private,REGION I (ILOCOS REGION),0100000000,PANGASINAN,0105500000,CITY OF URDANETA,0105546000,NANCAYASAN,0105546027,,
DOH000000000050859,RM CENTRAL DIAGNOSTIC CLINIC,General Clinical Laboratory,Private,REGION I (ILOCOS REGION),0100000000,PANGASINAN,0105500000,CITY OF URDANETA,0105546000,POBLACION,0105546032,,
DOH000000000050858,U-HEALTH CARE LABORATORY AND DIAGNOSTIC CENTER,General Clinical Laboratory,Private,REGION I (ILOCOS REGION),0100000000,PANGASINAN,0105500000,CITY OF URDANETA,0105546000,POBLACION,0105546032,,
DOH000000000050857,N-G DIAGNOSTIC LABORATORY,General Clinical Laboratory,Private,REGION I (ILOCOS REGION),0100000000,PANGASINAN,0105500000,VILLASIS,0105547000,ZONE II (POB.),0105547014,,
DOH000000000050856,NEIGHBOR DIAGNOSTIC CLINIC,General Clinical Laboratory,Private,REGION I (ILOCOS REGION),0100000000,PANGASINAN,0105500000,CITY OF SAN CARLOS,0105532000,PALARIS (POB.),0105532061,,
DOH000000000050855,CALASIAO MUNICIPAL CLINICAL LABORATORY,General Clinical Laboratory,Government,REGION I (ILOCOS REGION),0100000000,PANGASINAN,0105500000,CALASIAO,0105517000,POBLACION EAST,0105517018,,
DOH000000000050854,AAW DIAGNOSTIC LABORATORY,General Clinical Laboratory,Private,REGION I (ILOCOS REGION),0100000000,PANGASINAN,0105500000,CITY OF ALAMINOS,0105503000,POBLACION,0105503021,,
DOH000000000050851,AGNO RURAL HEALTH UNIT I CLINICAL LABORATORY,General Clinical Laboratory,Government,REGION I (ILOCOS REGION),0100000000,PANGASINAN,0105500000,AGNO,0105501000,POBLACION WEST,0105501015,,
DOH000000000050850,ALAMINOS CITY HEALTH OFFICE LABORATORY,General Clinical Laboratory,Government,REGION I (ILOCOS REGION),0100000000,PANGASINAN,0105500000,CITY OF ALAMINOS,0105503000,POBLACION,0105503021,,
DOH000000000050849,ALCALA MUNICIPAL HEALTH OFFICE LABORATORY,General Clinical Laboratory,Government,REGION I (ILOCOS REGION),0100000000,PANGASINAN,0105500000,ALCALA,0105504000,POBLACION EAST,0105504015,,
DOH000000000050847,BALUNGAO MUNICIPAL HEALTH OFFICE CLINICAL LABORATORY,General Clinical Laboratory,Government,REGION I (ILOCOS REGION),0100000000,PANGASINAN,0105500000,BALUNGAO,0105507000,POBLACION,0105507008,,
DOH000000000050846,BANI- RHU CLINICAL LABORATORY,General Clinical Laboratory,Government,REGION I (ILOCOS REGION),0100000000,PANGASINAN,0105500000,BANI,0105508000,POBLACION,0105508015,,
DOH000000000050845,BASISTA RURAL HEALTH UNIT LABORATORY,General Clinical Laboratory,Government,REGION I (ILOCOS REGION),0100000000,PANGASINAN,0105500000,BASISTA,0105509000,POBLACION,0105509013,,
DOH000000000050844,RURAL HEALTH UNIT I CLINICAL LABORATORY,General Clinical Laboratory,Government,REGION I (ILOCOS REGION),0100000000,PANGASINAN,0105500000,BAYAMBANG,0105511000,ZONE II (POB.),0105511074,,
DOH000000000050843,RHU BINALONAN LABORATORY,General Clinical Laboratory,Government,REGION I (ILOCOS REGION),0100000000,PANGASINAN,0105500000,BINALONAN,0105512000,POBLACION,0105512015,,
DOH000000000050842,MUNICIPAL HEALTH OFFICE OF BOLINAO,General Clinical Laboratory,Government,REGION I (ILOCOS REGION),0100000000,PANGASINAN,0105500000,BOLINAO,0105514000,GERMINAL (POB.),0105514011,,
DOH000000000050841,BURGOS PANGASINAN MUNICIPAL LABORATORY,General Clinical Laboratory,Government,REGION I (ILOCOS REGION),0100000000,PANGASINAN,0105500000,BURGOS,0105516000,POBLACION,0105516007,,
DOH000000000050840,DEPARTMENT OF HEALTH - DRUG TREATMENT AND REHABILITATION CENTER DAGUPAN CLINICAL LABORATORY SERVICES,General Clinical Laboratory,Government,REGION I (ILOCOS REGION),0100000000,PANGASINAN,0105500000,CITY OF DAGUPAN,0105518000,BONUAN BINLOC,0105518007,,
DOH000000000050839,RURAL HEALTH UNIT - INFANTA OF PANGASINAN CLINICAL LABORATORY,General Clinical Laboratory,Government,REGION I (ILOCOS REGION),0100000000,PANGASINAN,0105500000,INFANTA,0105520000,POBLACION,0105520012,,
DOH000000000050838,LABRADOR MUNICIPAL HEALTH OFFICE LABORATORY,General Clinical Laboratory,Government,REGION I (ILOCOS REGION),0100000000,PANGASINAN,0105500000,MALASIQUI,0105524000,CABATLING,0105524022,,
DOH000000000050837,MANGALDAN RURAL HEALTH UNIT LABORATORY CLINIC,General Clinical Laboratory,Government,REGION I (ILOCOS REGION),0100000000,PANGASINAN,0105500000,MANGALDAN,0105526000,POBLACION,0105526025,,
DOH000000000050836,RURAL HEALTH UNIT I MANGATAREM,General Clinical Laboratory,Government,REGION I (ILOCOS REGION),0100000000,PANGASINAN,0105500000,MANGATAREM,0105527000,GENERAL LUNA (POB.),0105527039,,
DOH000000000050835,RHU - NATIVIDAD CLINICAL LABORATORY,General Clinical Laboratory,Government,REGION I (ILOCOS REGION),0100000000,PANGASINAN,0105500000,NATIVIDAD,0105529000,POBLACION EAST,0105529011,,
DOH000000000050834,POZORRUBIO RHU LABORATORY,General Clinical Laboratory,Government,REGION I (ILOCOS REGION),0100000000,PANGASINAN,0105500000,POZORRUBIO,0105530000,POBLACION III,0105530028,,
DOH000000000050833,RHU-I BAYAMBANG CLINICAL LABORATORY,General Clinical Laboratory,Government,REGION I (ILOCOS REGION),0100000000,PANGASINAN,0105500000,BAYAMBANG,0105511000,POBLACION SUR,0105511053,,
DOH000000000050832,RURAL HEALTH UNIT ROSALES LABORATORY,General Clinical Laboratory,Government,REGION I (ILOCOS REGION),0100000000,PANGASINAN,0105500000,ROSALES,0105531000,ZONE I (POB.),0105531033,,
DOH000000000050831,CITY HEALTH OFFICE LABORATORY,General Clinical Laboratory,Government,REGION I (ILOCOS REGION),0100000000,PANGASINAN,0105500000,CITY OF SAN CARLOS,0105532000,PALARIS (POB.),0105532061,,
DOH000000000050830,DR. LAUREANO S. PEREZ MEMORIAL CLINIC AND LABORATORY,General Clinical Laboratory,Government,REGION I (ILOCOS REGION),0100000000,PANGASINAN,0105500000,SAN MANUEL,0105535000,GUISET SUR (POB.),0105535008,,
DOH000000000050829,RURAL HEALTH UNIT- SAN QUINTIN,General Clinical Laboratory,Government,REGION I (ILOCOS REGION),0100000000,PANGASINAN,0105500000,SAN QUINTIN,0105537000,CASANTAMARIAN,0105537011,,
DOH000000000050828,SISON RHU CLINICAL LABORATORY,General Clinical Laboratory,Government,REGION I (ILOCOS REGION),0100000000,PANGASINAN,0105500000,SISON,0105541000,POBLACION CENTRAL,0105541024,,
DOH000000000050827,SUAL MUNICIPAL HEALTH OFFICE LABORATORY,General Clinical Laboratory,Government,REGION I (ILOCOS REGION),0100000000,PANGASINAN,0105500000,SUAL,0105542000,POBLACION,0105542014,,
DOH000000000050826,UMINGAN RURAL HEALTH UNIT -1 CLINICAL LABORATORY,General Clinical Laboratory,Government,REGION I (ILOCOS REGION),0100000000,PANGASINAN,0105500000,UMINGAN,0105544000,POBLACION WEST,0105544047,,
DOH000000000050825,URDANETA CITY HEALTH OFFICE I - CLINICAL LABORATORY,General Clinical Laboratory,Government,REGION I (ILOCOS REGION),0100000000,PANGASINAN,0105500000,CITY OF URDANETA,0105546000,POBLACION,0105546032,,
DOH000000000050824,URDANETA CITY UNIVERSITY- DIAGNOSTIC &AMP; LABORATORY DEPARTMENT,General Clinical Laboratory,Government,REGION I (ILOCOS REGION),0100000000,PANGASINAN,0105500000,CITY OF URDANETA,0105546000,SAN VICENTE,0105546034,,
DOH000000000050658,"ALLIED CARE EXPERTS MEDICAL CENTER PANGASINAN, INC",Hospital,Private,REGION I (ILOCOS REGION),010000000,PANGASINAN,010550000,CITY OF DAGUPAN,010551800,MALUED,0105518018,,
DOH000000000005042,SALOMAGUE SUR BARANGAY HEALTH STATION,Barangay Health Station,Government,REGION I (ILOCOS REGION),010000000,PANGASINAN,010550000,BUGALLON,010551500,SALOMAGUE SUR,0105515021,15.9100176,120.2285821
DOH000000000005040,BARI BARANGAY HEALTH STATION,Barangay Health Station,Government,REGION I (ILOCOS REGION),0100000000,PANGASINAN,0105500000,MANGALDAN,0105526000,BARI,0105526006,16.059616,120.398456
DOH000000000050284,REGION I MEDICAL CENTER,Kidney Transplant Facility,Government,REGION I (ILOCOS REGION),0100000000,PANGASINAN,0105500000,CITY OF DAGUPAN,0105518000,PANTAL,0105518022,16.0483379,120.3412476
DOH000000000005023,SANTA MARIA (LUYAN NORTH) HEALTH FACILITY,Barangay Health Station,Government,REGION I (ILOCOS REGION),0100000000,PANGASINAN,0105500000,MAPANDAN,0105528000,SANTA MARIA,0105528016,16.028682,120.468612
DOH000000000050213,SAN CARLOS EYE CENTER,Ambulatory Surgical Clinic,Private,REGION I (ILOCOS REGION),0100000000,PANGASINAN,0105500000,BINMALEY,0105513000,NAGUILAYAN,0105513021,16.0097904,120.2859497
DOH000000000050047,VILLASIS MUNICIPAL HEALTH OFFICE LABORATORY,General Clinical Laboratory,Government,REGION I (ILOCOS REGION),0100000000,PANGASINAN,0105500000,VILLASIS,0105547000,ZONE I (POB.),0105547013,,
DOH000000000004998,ASINGAN RURAL HEALTH UNIT II (GARY TAGANAS CHUI MEMORIAL HEALTH CENTER),Rural Health Unit,Government,REGION I (ILOCOS REGION),010000000,PANGASINAN,010550000,ASINGAN,010550600,BANTOG,0105506004,16.010102,120.691384
DOH000000000049952,TAYUG FAMILY HOSPITAL,COVID-19 Testing Laboratory,Private,REGION I (ILOCOS REGION),0100000000,PANGASINAN,0105500000,TAYUG,0105543000,BARANGOBONG,0105543003,,
DOH000000000049910,NAYOM BARANGAY HEALTH STATION,Barangay Health Station,Government,REGION I (ILOCOS REGION),0100000000,PANGASINAN,0105500000,INFANTA,0105520000,NAYOM,0105520010,,
DOH000000000004984,CALIT BARANGAY HEALTH STATION,Barangay Health Station,Government,REGION I (ILOCOS REGION),0100000000,PANGASINAN,0105500000,BINMALEY,0105513000,CALIT,0105513009,16.006502,120.319127
DOH000000000004983,BATAKIL BARANGAY HEALTH STATION,Barangay Health Station,Government,REGION I (ILOCOS REGION),0100000000,PANGASINAN,0105500000,POZORRUBIO,0105530000,BATAKIL,0105530007,16.1404057,120.5217209
DOH000000000004982,BASING BARANGAY HEALTH STATION,Barangay Health Station,Government,REGION I (ILOCOS REGION),0100000000,PANGASINAN,0105500000,LINGAYEN (CAPITAL),0105522000,BASING,0105522007,15.9747176,120.2584821
DOH000000000004941,PALACPALAC BARANGAY HEALTH STATION,Barangay Health Station,Government,REGION I (ILOCOS REGION),0100000000,PANGASINAN,0105500000,POZORRUBIO,0105530000,PALACPALAC,0105530024,16.1264954,120.5339508
DOH000000000004895,LIPAY BARANGAY HEALTH STATION,Barangay Health Station,Government,REGION I (ILOCOS REGION),010000000,PANGASINAN,010550000,VILLASIS,010554700,LIPAY,0105547009,15.9003833,120.6060833
DOH000000000048645,LOCAL GOVERNMENT UNIT OF BAYAMBANG,Ambulance Service Provider,Government,REGION I (ILOCOS REGION),0100000000,PANGASINAN,0105500000,BAYAMBANG,0105511000,ZONE II (POB.),0105511074,,
DOH000000000048643,MUNICIPALITY OF STO. THOMAS PANGASINAN,Ambulance Service Provider,Government,REGION I (ILOCOS REGION),0100000000,PANGASINAN,0105500000,SANTO TOMAS,0105540000,POBLACION WEST,0105540003,,
DOH000000000004859,SANTO NIÑO DE CASIPIT GENERAL HOSPITAL,Infirmary,Private,REGION I (ILOCOS REGION),010000000,PANGASINAN,010550000,LINGAYEN (CAPITAL),010552200,POBLACION,0105522028,16.0210171,120.2287827
DOH000000000048204,TOP CARE DIALYSIS CENTER CORP.,Dialysis Clinic,Private,REGION I (ILOCOS REGION),0100000000,PANGASINAN,0105500000,MALASIQUI,0105524000,POBLACION,0105524062,,
DOH000000000004814,CABULOAN BARANGAY HEALTH STATION,Barangay Health Station,Government,REGION I (ILOCOS REGION),010000000,PANGASINAN,010550000,CITY OF URDANETA,010554600,CABULOAN,0105546009,15.9767477,120.6013036
DOH000000000004809,ZONE I BARANGAY HEALTH STATION,Barangay Health Station,Government,REGION I (ILOCOS REGION),010000000,PANGASINAN,010550000,BAYAMBANG,010551100,ZONE I (POB.),0105511073,15.8075554,120.4643562
DOH000000000048051,UNIVERSAL ADVANCE MEDICAL DIAGNOSTICS LABORATORY INC.,Drug Testing Laboratory,Private,REGION I (ILOCOS REGION),0100000000,PANGASINAN,0105500000,CITY OF URDANETA,0105546000,NANCAYASAN,0105546027,,
DOH000000000048050,TLC DRUG TESTING CENTER,Drug Testing Laboratory,Private,REGION I (ILOCOS REGION),0100000000,PANGASINAN,0105500000,ROSALES,0105531000,CARMEN WEST,0105531010,,
DOH000000000048049,THREE RJAM DRUG TESTING LABORATORY,Drug Testing Laboratory,Private,REGION I (ILOCOS REGION),0100000000,PANGASINAN,0105500000,CITY OF DAGUPAN,0105518000,POBLACION OESTE,0105518023,,
DOH000000000048046,ST. REINILDIS MEDICAL CLINIC AND DIAGNOSTIC CENTER,Drug Testing Laboratory,Private,REGION I (ILOCOS REGION),0100000000,PANGASINAN,0105500000,CITY OF DAGUPAN,0105518000,BONUAN BINLOC,0105518007,,
DOH000000000048045,"SINGAPORE MEDICAL LABORATORIES, INC.",Drug Testing Laboratory,Private,REGION I (ILOCOS REGION),0100000000,PANGASINAN,0105500000,CITY OF DAGUPAN,0105518000,TAPUAC,0105518031,,
DOH000000000048044,ROYAL STAR DRUG TESTING LABORATORY,Drug Testing Laboratory,Private,REGION I (ILOCOS REGION),0100000000,PANGASINAN,0105500000,CITY OF DAGUPAN,0105518000,POBLACION OESTE,0105518023,,
DOH000000000048042,REGION 1 MEDICAL CENTER DRUG TESTING LABORATORY,Drug Testing Laboratory,Government,REGION I (ILOCOS REGION),0100000000,PANGASINAN,0105500000,CITY OF DAGUPAN,0105518000,PANTAL,0105518022,,
DOH000000000048041,QUEEN CHECK DRUG TESTING LABORATORY,Drug Testing Laboratory,Private,REGION I (ILOCOS REGION),0100000000,PANGASINAN,0105500000,CITY OF SAN CARLOS,0105532000,ROXAS BOULEVARD (POB.),0105532076,,
DOH000000000048040,PRIME ASSAY MEDICAL AND DIAGNOSTIC CLINIC,Drug Testing Laboratory,Private,REGION I (ILOCOS REGION),0100000000,PANGASINAN,0105500000,CITY OF URDANETA,0105546000,POBLACION,0105546032,,
DOH000000000048039,PANGASINAN DOCTORS HOSPITAL CORPORATION,Drug Testing Laboratory,Private,REGION I (ILOCOS REGION),0100000000,PANGASINAN,0105500000,CITY OF SAN CARLOS,0105532000,RIZAL (POB.),0105532075,,
DOH000000000048038,PADRE PIO DIAGNOSTIC CENTER,Drug Testing Laboratory,Private,REGION I (ILOCOS REGION),0100000000,PANGASINAN,0105500000,MALASIQUI,0105524000,POBLACION,0105524062,,
DOH000000000048037,P.M.R LABORATORY AND POLYCLINIC,Drug Testing Laboratory,Private,REGION I (ILOCOS REGION),0100000000,PANGASINAN,0105500000,CITY OF URDANETA,0105546000,POBLACION,0105546032,,
DOH000000000048036,ORT DRUG TEST LABORATORY,Drug Testing Laboratory,Private,REGION I (ILOCOS REGION),0100000000,PANGASINAN,0105500000,CITY OF DAGUPAN,0105518000,POBLACION OESTE,0105518023,,
DOH000000000048034,NEW WORLD DIAGNOSTICS INC.,Drug Testing Laboratory,Private,REGION I (ILOCOS REGION),0100000000,PANGASINAN,0105500000,CITY OF DAGUPAN,0105518000,POBLACION OESTE,0105518023,,
DOH000000000048031,MT. HERMON DIAGNOSTIC CENTER,Drug Testing Laboratory,Private,REGION I (ILOCOS REGION),0100000000,PANGASINAN,0105500000,MABINI,0105523000,TAGUDIN,0105523018,,
DOH000000000048029,MEDITEK MEDICAL CLINIC AND LABORATORY,Drug Testing Laboratory,Private,REGION I (ILOCOS REGION),0100000000,PANGASINAN,0105500000,MANAOAG,0105525000,POBLACION,0105525039,,
DOH000000000048028,"MEDISENSE LABORATORY CENTER, INC.",Drug Testing Laboratory,Private,REGION I (ILOCOS REGION),0100000000,PANGASINAN,0105500000,CITY OF DAGUPAN,0105518000,POBLACION OESTE,0105518023,,
DOH000000000048005,"UNIVERSAL ADVANCE MEDICAL DIAGNOSTICS LABORATORY, INC.",Medical Facility for Overseas Workers & Seafarers,Private,REGION I (ILOCOS REGION),0100000000,PANGASINAN,0105500000,CITY OF URDANETA,0105546000,NANCAYASAN,0105546027,,
DOH000000000048003,"DAGUPAN DOCTORS VILLAFLOR MEMORIAL HOSPITAL, INC.",Medical Facility for Overseas Workers & Seafarers,Private,REGION I (ILOCOS REGION),0100000000,PANGASINAN,0105500000,CITY OF DAGUPAN,0105518000,MAYOMBO,0105518021,,
DOH000000000048002,HI-PRECISION DIAGNOSTIC PLUS,Drug Testing Laboratory,Private,REGION I (ILOCOS REGION),0100000000,PANGASINAN,0105500000,CITY OF URDANETA,0105546000,NANCAYASAN,0105546027,,
DOH000000000048001,HI-PRECISION DIAGNOSTICS,Drug Testing Laboratory,Private,REGION I (ILOCOS REGION),0100000000,PANGASINAN,0105500000,CITY OF DAGUPAN,0105518000,MAYOMBO,0105518021,,
DOH000000000047999,FPDC DIAGNOSTIC CLINIC,Drug Testing Laboratory,Private,REGION I (ILOCOS REGION),0100000000,PANGASINAN,0105500000,BAYAMBANG,0105511000,ZONE III (POB.),0105511075,,
DOH000000000047998,FINE PRECISION DIAGNOSTIC CLINIC,Drug Testing Laboratory,Private,REGION I (ILOCOS REGION),0100000000,PANGASINAN,0105500000,CITY OF DAGUPAN,0105518000,POBLACION OESTE,0105518023,,
DOH000000000047997,FINE LEGACY MEDICAL DIAGNOSTIC LABORATORY,Drug Testing Laboratory,Private,REGION I (ILOCOS REGION),0100000000,PANGASINAN,0105500000,CITY OF ALAMINOS,0105503000,POBLACION,0105503021,,
DOH000000000047996,"FAMOUS CARE MEDICAL CLINIC, LABORATORY AND DIAGNOSTIC CENTER",Drug Testing Laboratory,Private,REGION I (ILOCOS REGION),0100000000,PANGASINAN,0105500000,CITY OF DAGUPAN,0105518000,POGO CHICO,0105518025,,
DOH000000000047995,EARL HEALTHLINES CLINICAL LABORATORY,Drug Testing Laboratory,Private,REGION I (ILOCOS REGION),0100000000,PANGASINAN,0105500000,MANGATAREM,0105527000,ZAMORA (POB.),0105527083,,
DOH000000000047993,DEPARTMENT OF HEALTH - DRUG TREATMENT AND REHABILITATION CENTER DAGUPAN,Drug Testing Laboratory,Government,REGION I (ILOCOS REGION),0100000000,PANGASINAN,0105500000,CITY OF DAGUPAN,0105518000,BONUAN BINLOC,0105518007,,
DOH000000000047992,"DAGUPAN DOCTORS VILLAFLOR MEMORIAL HOSPITAL, INC",Drug Testing Laboratory,Private,REGION I (ILOCOS REGION),0100000000,PANGASINAN,0105500000,CITY OF DAGUPAN,0105518000,POBLACION OESTE,0105518023,,
DOH000000000047991,CHRIST-BEARER CLINICAL LABORATORY,Drug Testing Laboratory,Private,REGION I (ILOCOS REGION),0100000000,PANGASINAN,0105500000,MALASIQUI,0105524000,CABATLING,0105524022,,
DOH000000000047987,ALLIANCE DIAGNOSTIC CENTER,Drug Testing Laboratory,Private,REGION I (ILOCOS REGION),0100000000,PANGASINAN,0105500000,MANGALDAN,0105526000,POBLACION,0105526025,,
DOH000000000047986,ALAMINOS DRUG TESTING LABORATORY,Drug Testing Laboratory,Government,REGION I (ILOCOS REGION),0100000000,PANGASINAN,0105500000,CITY OF ALAMINOS,0105503000,POBLACION,0105503021,,
DOH000000000047985,ACCURA-TECH DIAGNOSTIC LABORATORY,Drug Testing Laboratory,Private,REGION I (ILOCOS REGION),0100000000,PANGASINAN,0105500000,UMINGAN,0105544000,POBLACION WEST,0105544047,15.9295301,120.8419113
DOH000000000047984,ACULAB DRUG TESTING CENTER,Drug Testing Laboratory,Private,REGION I (ILOCOS REGION),0100000000,PANGASINAN,0105500000,CITY OF URDANETA,0105546000,POBLACION,0105546032,,
DOH000000000047965,"MARILAO MEDICAL AND DIAGNOSTIC CLINIC, INC.(DAGUPAN BRANCH)-BIRTHING HOME",Birthing Home,Private,REGION I (ILOCOS REGION),0100000000,PANGASINAN,0105500000,CITY OF DAGUPAN,0105518000,TAPUAC,0105518031,16.0272312,120.3278732
DOH000000000047963,ACCURA-TECH DIAGNOSTIC LABORATORY,General Clinical Laboratory,Private,REGION I (ILOCOS REGION),0100000000,PANGASINAN,0105500000,UMINGAN,0105544000,POBLACION WEST,0105544047,15.9295301,120.8419113
DOH000000000047962,A.G.S. DIAGNOSTIC &AMP; DRUG TESTING LABORATORY,General Clinical Laboratory,Private,REGION I (ILOCOS REGION),0100000000,PANGASINAN,0105500000,CITY OF SAN CARLOS,0105532000,MANZON,0105532052,17.3668308,120.4790497
DOH000000000047960,ALCALA MEDICAL &AMP; DIAGNOSTIC CENTER,General Clinical Laboratory,Private,REGION I (ILOCOS REGION),0100000000,PANGASINAN,0105500000,ALCALA,0105504000,POBLACION EAST,0105504015,15.8464928,120.5224304
DOH000000000047957,APELLANES ADULT &AMP; PEDIATRIC CLINIC &AMP; LABORATORY,General Clinical Laboratory,Private,REGION I (ILOCOS REGION),010000000,PANGASINAN,010550000,TAYUG,010554300,BARANGAY A (POB.),0105543014,,
DOH000000000047955,ASINGAN DIAGNOSTIC CLINIC,General Clinical Laboratory,Private,REGION I (ILOCOS REGION),010000000,PANGASINAN,010550000,ASINGAN,010550600,POBLACION WEST,0105506017,,
DOH000000000047954,BETTERLIFE MEDICAL CLINIC,General Clinical Laboratory,Private,REGION I (ILOCOS REGION),010000000,PANGASINAN,010550000,CITY OF ALAMINOS,010550300,POBLACION,0105503021,,
DOH000000000047952,BIOTECHNICA DIAGNOSTIC LABORATORY,General Clinical Laboratory,Private,REGION I (ILOCOS REGION),0100000000,PANGASINAN,0105500000,LINGAYEN (CAPITAL),0105522000,POBLACION,0105522028,,
DOH000000000047951,CALASIAO DIAGNOSTIC CENTER,General Clinical Laboratory,Private,REGION I (ILOCOS REGION),010000000,PANGASINAN,010550000,CALASIAO,010551700,POBLACION EAST,0105517018,16.0094318,120.3594284
DOH000000000047950,CHRIST BEARER CLINICAL LABORATORY,General Clinical Laboratory,Private,REGION I (ILOCOS REGION),0100000000,PANGASINAN,0105500000,MALASIQUI,0105524000,CABATLING,0105524022,,
DOH000000000047949,DDVMH - URDANETA DIAGNOSTIC LABORATORY &AMP; X-RAY CLINIC,General Clinical Laboratory,Private,REGION I (ILOCOS REGION),010000000,PANGASINAN,010550000,CITY OF URDANETA,010554600,POBLACION,0105546032,,
DOH000000000047948,DIVINE GRACE CLINIC &AMP; LABORATORY,General Clinical Laboratory,Private,REGION I (ILOCOS REGION),0100000000,PANGASINAN,0105500000,ALCALA,0105504000,POBLACION WEST,0105504016,,
DOH000000000047947,DOCTOR'S LINK MEDICAL &AMP; CLINICAL LABORATORY,General Clinical Laboratory,Private,REGION I (ILOCOS REGION),010000000,PANGASINAN,010550000,POZORRUBIO,010553000,POBLACION III,0105530028,,
DOH000000000047946,DREAM HEALTHLAB  DIAGNOSTIC CENTER,General Clinical Laboratory,Private,REGION I (ILOCOS REGION),010000000,PANGASINAN,010550000,MANGATAREM,010552700,ZAMORA (POB.),0105527083,,
DOH000000000047945,D' HEALTHCARE MULTI-SPECIALTY CLINIC,General Clinical Laboratory,Private,REGION I (ILOCOS REGION),0100000000,PANGASINAN,0105500000,BINMALEY,0105513000,POBLACION,0105513026,15.9177361,120.414772
DOH000000000047944,DSM CARE CLINI-CHECK DIAGNOSTIC LAB.,General Clinical Laboratory,Private,REGION I (ILOCOS REGION),010000000,PANGASINAN,010550000,CITY OF URDANETA,010554600,POBLACION,0105546032,,
DOH000000000047943,FAMOUS CARE MEDICAL LABORATORY AND DIAGNOSTIC CENTER,General Clinical Laboratory,Private,REGION I (ILOCOS REGION),0100000000,PANGASINAN,0105500000,CITY OF DAGUPAN,0105518000,HERRERO,0105518013,16.0402317,120.3379974
DOH000000000047942,EARL HEALTHLINES CLINICAL LABORATORY,General Clinical Laboratory,Private,REGION I (ILOCOS REGION),010000000,PANGASINAN,010550000,MANGATAREM,010552700,ZAMORA (POB.),0105527083,,
DOH000000000047941,EARL HEALTHLINES CLINICAL LABORATORY,General Clinical Laboratory,Private,REGION I (ILOCOS REGION),0100000000,PANGASINAN,0105500000,ANDA,0105505000,POBLACION,0105505014,,
DOH000000000047934,FILME DIAGNOSTIKA LABORATORY,General Clinical Laboratory,Private,REGION I (ILOCOS REGION),010000000,PANGASINAN,010550000,SANTA MARIA,010553900,POBLACION WEST,0105539015,,
DOH000000000047931,FINE LEGACY MEDICAL CLINIC AND DIAGNOSTIC LABORATORY,General Clinical Laboratory,Private,REGION I (ILOCOS REGION),0100000000,PANGASINAN,0105500000,CITY OF ALAMINOS,0105503000,POBLACION,0105503021,,
DOH000000000047930,FINE PRECISION DIAGNOSTIC CLINIC,General Clinical Laboratory,Private,REGION I (ILOCOS REGION),010000000,PANGASINAN,010550000,CITY OF DAGUPAN,010551800,POBLACION OESTE,0105518023,,
DOH000000000047928,GJLAM CARE MEDICAL &AMP; DIAGNOSTIC LABORATORY,General Clinical Laboratory,Private,REGION I (ILOCOS REGION),010000000,PANGASINAN,010550000,BINMALEY,010551300,POBLACION,0105513026,,
DOH000000000047927,GOOD SHEPHERD SPECIALTY CLINIC AND LABORATORY,General Clinical Laboratory,Private,REGION I (ILOCOS REGION),0100000000,PANGASINAN,0105500000,CITY OF URDANETA,0105546000,SAN VICENTE,0105546034,,
DOH000000000047926,GRM DIAGNOSTIC CENTER,General Clinical Laboratory,Private,REGION I (ILOCOS REGION),010000000,PANGASINAN,010550000,BAYAMBANG,010551100,POBLACION SUR,0105511053,,
DOH000000000047923,HI-PRECISION DIAGNOSTICS PLUS,General Clinical Laboratory,Private,REGION I (ILOCOS REGION),0100000000,PANGASINAN,0105500000,CITY OF URDANETA,0105546000,NANCAYASAN,0105546027,,
DOH000000000047919,HEALTHCARE 101 PLUS,General Clinical Laboratory,Private,REGION I (ILOCOS REGION),010000000,PANGASINAN,010550000,MALASIQUI,010552400,POBLACION,0105524062,,
DOH000000000047917,HYPERLABORATORIES INC.,General Clinical Laboratory,Private,REGION I (ILOCOS REGION),010000000,PANGASINAN,010550000,CITY OF DAGUPAN,010551800,PANTAL,0105518022,,
DOH000000000047906,JDA DIAGNOSTIC LABORATORY,General Clinical Laboratory,Private,REGION I (ILOCOS REGION),0100000000,PANGASINAN,0105500000,CITY OF ALAMINOS,0105503000,POBLACION,0105503021,16.1582966,119.9841766
DOH000000000047899,KLINIKA DIAGNOSTIKA MEDICAL &AMP; DIAGNOSTIC CENTER,General Clinical Laboratory,Private,REGION I (ILOCOS REGION),0100000000,PANGASINAN,0105500000,CITY OF DAGUPAN,0105518000,MAYOMBO,0105518021,16.0389919,120.3466568
DOH000000000047890,"MANGALDAN DIAGNOSTIC CENTER, INC.",General Clinical Laboratory,Private,REGION I (ILOCOS REGION),010000000,PANGASINAN,010550000,LINGAYEN (CAPITAL),010552200,POBLACION,0105522028,16.0228348,120.2303848
DOH000000000047888,"MANGALDAN DIAGNOSTIC CENTER, INC.",General Clinical Laboratory,Private,REGION I (ILOCOS REGION),0100000000,PANGASINAN,0105500000,MANGALDAN,0105526000,POBLACION,0105526025,16.067831,120.4044876
DOH000000000047886,MAPANDAN MEDICAL CLINIC &AMP; LABORATORY,General Clinical Laboratory,Private,REGION I (ILOCOS REGION),0100000000,PANGASINAN,0105500000,MAPANDAN,0105528000,POBLACION,0105528014,16.0245323,120.4559937
DOH000000000047883,MARILAO MEDICAL &AMP; DIAGNOSTIC CLINIC CLINIC,General Clinical Laboratory,Private,REGION I (ILOCOS REGION),010000000,PANGASINAN,010550000,CITY OF DAGUPAN,010551800,PANTAL,0105518022,,
DOH000000000047882,MEDCORE DIAGNOSTIC LABORATORY,General Clinical Laboratory,Private,REGION I (ILOCOS REGION),0100000000,PANGASINAN,0105500000,SAN FABIAN,0105533000,POBLACION,0105533020,,
DOH000000000047880,MEDNET LABORATORY &AMP; DIAGNOSTIC CENTER,General Clinical Laboratory,Private,REGION I (ILOCOS REGION),0100000000,PANGASINAN,0105500000,SAN FABIAN,0105533000,CAYANGA,0105533010,16.1232281,120.4051514
DOH000000000047879,MEDITEK MEDICAL CLINIC &AMP; LABORATORY,General Clinical Laboratory,Private,REGION I (ILOCOS REGION),010000000,PANGASINAN,010550000,MAPANDAN,010552800,POBLACION,0105528014,,
DOH000000000047875,MEDITEK MEDICAL CLINIC &AMP; LABORATORY,General Clinical Laboratory,Private,REGION I (ILOCOS REGION),0100000000,PANGASINAN,0105500000,MANAOAG,0105525000,POBLACION,0105525039,16.0273914,120.4523392
DOH000000000047873,"METRO URDANETA SPECIALIST MEDICAL DIAGNOSTIC CENTER, INC.",General Clinical Laboratory,Private,REGION I (ILOCOS REGION),0100000000,PANGASINAN,0105500000,CITY OF URDANETA,0105546000,NANCAYASAN,0105546027,,
DOH000000000047854,MD'S CRADLE BIRTHING HOME,Birthing Home,Private,REGION I (ILOCOS REGION),0100000000,PANGASINAN,0105500000,ROSALES,0105531000,CARMAY EAST,0105531035,15.9605894,120.5812378
DOH000000000047850,MANGATAREM RHU II- BIRTHING HOME FACILITY,Birthing Home,Government,REGION I (ILOCOS REGION),010000000,PANGASINAN,010550000,MANGATAREM,010552700,BARACBAC,0105527005,15.723218,120.3439789
DOH000000000047830,CABARABUAN BARANGAY HEALTH STATION,Barangay Health Station,Government,REGION I (ILOCOS REGION),0100000000,PANGASINAN,0105500000,MANGATAREM,0105527000,CABARABUAN,0105527021,15.7128754,120.3335876
DOH000000000047829,BOGTONG BUNAO BARANGAY HEALTH STATION,Barangay Health Station,Government,REGION I (ILOCOS REGION),0100000000,PANGASINAN,0105500000,MANGATAREM,0105527000,BOGTONG BUNAO,0105527008,15.7508612,120.335144
DOH000000000047828,CACAOITEN BARANGAY HEALTH STATION,Barangay Health Station,Government,REGION I (ILOCOS REGION),0100000000,PANGASINAN,0105500000,MANGATAREM,0105527000,CACAOITEN,0105527025,,
DOH000000000047827,TOCOC BARIKIR BARANGAY HEALTH STATION,Barangay Health Station,Government,REGION I (ILOCOS REGION),0100000000,PANGASINAN,0105500000,MANGATAREM,0105527000,TOCOC BARIKIR,0105527078,15.7334747,120.2887878
DOH000000000047826,SUACO BARANGAY HEALTH STATION,Barangay Health Station,Government,REGION I (ILOCOS REGION),0100000000,PANGASINAN,0105500000,MANGATAREM,0105527000,SUACO,0105527074,,
DOH000000000047825,BUAYA BARANGAY HEALTH STATION,Barangay Health Station,Government,REGION I (ILOCOS REGION),0100000000,PANGASINAN,0105500000,MANGATAREM,0105527000,BUAYA,0105527012,,
DOH000000000047824,DORONGAN LINMANSANGAN BARANGAY HEALTH STATION,Barangay Health Station,Government,REGION I (ILOCOS REGION),0100000000,PANGASINAN,0105500000,MANGATAREM,0105527000,DORONGAN LINMANSANGAN,0105527035,15.8500938,120.2962036
DOH000000000047823,HISTORIA BARANGAY HEALTH STATION,Barangay Health Station,Government,REGION I (ILOCOS REGION),0100000000,PANGASINAN,0105500000,MANGATAREM,0105527000,HISTORIA,0105527040,15.7861996,120.3076096
DOH000000000047822,UMANGAN BARANGAY HEALTH STATION,Barangay Health Station,Government,REGION I (ILOCOS REGION),0100000000,PANGASINAN,0105500000,MANGATAREM,0105527000,UMANGAN,0105527082,15.7991657,120.2843399
DOH000000000047821,CALVO BARANGAY HEALTH STATION,Barangay Health Station,Government,REGION I (ILOCOS REGION),0100000000,PANGASINAN,0105500000,MANGATAREM,0105527000,CALVO (POB.),0105527028,15.7941837,120.2904358
DOH000000000047820,MACARANG BARANGAY HEALTH STATION,Barangay Health Station,Government,REGION I (ILOCOS REGION),0100000000,PANGASINAN,0105500000,MANGATAREM,0105527000,MACARANG,0105527045,15.7140579,120.3567352
DOH000000000047818,BANTOCALING BARANGAY HEALTH STATION,Barangay Health Station,Government,REGION I (ILOCOS REGION),0100000000,PANGASINAN,0105500000,MANGATAREM,0105527000,BANTOCALING,0105527004,15.785203,120.2618942
DOH000000000047817,TUGUI GRANDE BARANGAY HEALTH STATION,Barangay Health Station,Government,REGION I (ILOCOS REGION),0100000000,PANGASINAN,0105500000,BANI,0105508000,TUGUI GRANDE,0105508025,16.2092419,119.8779984
DOH000000000047816,LUAC BARANGAY HEALTH STATION,Barangay Health Station,Government,REGION I (ILOCOS REGION),0100000000,PANGASINAN,0105500000,BANI,0105508000,LUAC,0105508012,16.2219868,119.8855743
DOH000000000047815,APORAO HEALTH STATION,Barangay Health Station,Government,REGION I (ILOCOS REGION),0100000000,PANGASINAN,0105500000,BANI,0105508000,APORAO,0105508002,16.2251759,119.8952332
DOH000000000047789,QUINAOAYANAN HEALTH STATION,Barangay Health Station,Government,REGION I (ILOCOS REGION),0100000000,PANGASINAN,0105500000,BANI,0105508000,QUINAOAYANAN,0105508016,16.1669807,119.8520126
DOH000000000047788,MACABIT BARANGAY HEALTH STATION,Barangay Health Station,Government,REGION I (ILOCOS REGION),0100000000,PANGASINAN,0105500000,BANI,0105508000,MACABIT,0105508013,16.2561455,119.8299942
DOH000000000047785,CAOAYAN BARANGAY HEALTH STATION,Barangay Health Station,Government,REGION I (ILOCOS REGION),0100000000,PANGASINAN,0105500000,SUAL,0105542000,CAOAYAN,0105542008,16.8066769,120.541748
DOH000000000047784,CAPANTOLAN BARANGAY HEALTH STATION,Barangay Health Station,Government,REGION I (ILOCOS REGION),0100000000,PANGASINAN,0105500000,SUAL,0105542000,CAPANTOLAN,0105542009,16.0988235,120.054985
DOH000000000047783,PAITAN WEST BARANGAY HEALTH STATION,Barangay Health Station,Government,REGION I (ILOCOS REGION),0100000000,PANGASINAN,0105500000,SUAL,0105542000,PAITAN WEST,0105542012,16.086935,120.0242996
DOH000000000047782,AMANCORO HEALTH STATION,Barangay Health Station,Government,REGION I (ILOCOS REGION),0100000000,PANGASINAN,0105500000,BINMALEY,0105513000,AMANCORO,0105513001,16.0010319,120.2758713
DOH000000000047781,BALAGAN BARANGAY HEALTH STATION,Barangay Health Station,Government,REGION I (ILOCOS REGION),0100000000,PANGASINAN,0105500000,BINMALEY,0105513000,BALAGAN,0105513002,15.9975996,120.2987213
DOH000000000047780,BALOGO BARANGAY HEALTH STATION,Barangay Health Station,Government,REGION I (ILOCOS REGION),0100000000,PANGASINAN,0105500000,BINMALEY,0105513000,BALOGO,0105513003,15.9901009,120.2816315
DOH000000000047779,CALOOCAN NORTE BARANGAY HEALTH STATION,Barangay Health Station,Government,REGION I (ILOCOS REGION),0100000000,PANGASINAN,0105500000,BINMALEY,0105513000,CALOOCAN NORTE,0105513010,16.038559,120.2806931
DOH000000000047778,GAYAMAN BARANGAY HEALTH STATION,Barangay Health Station,Government,REGION I (ILOCOS REGION),0100000000,PANGASINAN,0105500000,BINMALEY,0105513000,GAYAMAN,0105513015,16.0126705,120.3075104
DOH000000000047777,LINOC BARANGAY HEALTH STATION,Barangay Health Station,Government,REGION I (ILOCOS REGION),0100000000,PANGASINAN,0105500000,BINMALEY,0105513000,LINOC,0105513016,16.0219212,120.2945175
DOH000000000047776,MALINDONG BARANGAY HEALTH STATION,Barangay Health Station,Government,REGION I (ILOCOS REGION),0100000000,PANGASINAN,0105500000,BINMALEY,0105513000,MALINDONG,0105513019,16.0262127,120.2577667
DOH000000000047775,NAGPALANGAN BARANGAY HEALTH STATION,Barangay Health Station,Government,REGION I (ILOCOS REGION),0100000000,PANGASINAN,0105500000,BINMALEY,0105513000,NAGPALANGAN,0105513018,16.0034714,120.2691879
DOH000000000047774,SABANGAN BARANGAY HEALTH STATION,Barangay Health Station,Government,REGION I (ILOCOS REGION),0100000000,PANGASINAN,0105500000,BINMALEY,0105513000,SABANGAN,0105513028,16.0531902,120.2989426
DOH000000000047772,SALAPINGAO BARANGAY HEALTH STATION,Barangay Health Station,Government,REGION I (ILOCOS REGION),0100000000,PANGASINAN,0105500000,BINMALEY,0105513000,SALAPINGAO,0105513029,16.0585995,120.321991
DOH000000000047771,SAN ISIDRO NORTE BARANGAY HEALTH STATION,Barangay Health Station,Government,REGION I (ILOCOS REGION),0100000000,PANGASINAN,0105500000,BINMALEY,0105513000,SAN ISIDRO NORTE,0105513030,16.0428791,120.2662201
DOH000000000047769,TOMBOR BARANGAY HEALTH STATION,Barangay Health Station,Government,REGION I (ILOCOS REGION),0100000000,PANGASINAN,0105500000,BINMALEY,0105513000,TOMBOR,0105513033,16.0081196,120.3211899
DOH000000000000475,DASOL COMMUNITY HOSPITAL,Hospital,Government,REGION I (ILOCOS REGION),010000000,PANGASINAN,010550000,DASOL,010551900,BOBONOT,0105519003,16.0062637,119.8740463
DOH000000000047441,CATARATARAAN BARANGAY HEALTH STATION,Barangay Health Station,Government,REGION I (ILOCOS REGION),0100000000,PANGASINAN,0105500000,MANGATAREM,0105527000,CATARATARAAN,0105527030,15.7250566,120.2910309
DOH000000000047440,LAWAK LANGKA BARANGAY HEALTH STATION,Barangay Health Station,Government,REGION I (ILOCOS REGION),0100000000,PANGASINAN,0105500000,MANGATAREM,0105527000,LAWAK LANGKA,0105527041,15.7037811,120.317482
DOH000000000047439,BOGTONG NIOG BARANGAY HEALTH STATION,Barangay Health Station,Government,REGION I (ILOCOS REGION),0100000000,PANGASINAN,0105500000,MANGATAREM,0105527000,BOGTONG NIOG,0105527010,15.7554264,120.3276596
DOH000000000047438,PAMPANO BARANGAY HEALTH STATION,Barangay Health Station,Government,REGION I (ILOCOS REGION),0100000000,PANGASINAN,0105500000,MANGATAREM,0105527000,PAMPANO,0105527062,15.7672501,120.3558197
DOH000000000047437,PEANIA PEDANIA BARANGAY HEALTH STATION,Barangay Health Station,Government,REGION I (ILOCOS REGION),0100000000,PANGASINAN,0105500000,MANGATAREM,0105527000,PEANIA PEDANIA,0105527006,15.762887,120.3749771
DOH000000000047436,ANDANGIN BARANGAY HEALTH STATION,Barangay Health Station,Government,REGION I (ILOCOS REGION),0100000000,PANGASINAN,0105500000,MANGATAREM,0105527000,ANDANGIN,0105527001,15.7291384,120.3369675
DOH000000000047435,CABALUYAN 2ND BARANGAY HEALTH STATION,Barangay Health Station,Government,REGION I (ILOCOS REGION),0100000000,PANGASINAN,0105500000,MANGATAREM,0105527000,CABALUYAN 2ND,0105527020,15.6910295,120.3351593
DOH000000000047434,CABALUYAN 1ST BARANGAY HEALTH STATION,Barangay Health Station,Government,REGION I (ILOCOS REGION),0100000000,PANGASINAN,0105500000,MANGATAREM,0105527000,CABALUYAN 1ST,0105527019,15.7034588,120.3422852
DOH000000000047433,SALAVANTE BARANGAY HEALTH STATION,Barangay Health Station,Government,REGION I (ILOCOS REGION),0100000000,PANGASINAN,0105500000,MANGATAREM,0105527000,SALAVANTE,0105527071,15.7964802,120.3488693
DOH000000000047432,CASILAGAN BARANGAY HEALTH STATION,Barangay Health Station,Government,REGION I (ILOCOS REGION),0100000000,PANGASINAN,0105500000,MANGATAREM,0105527000,CASILAGAN,0105527029,15.7400398,120.3284912
DOH000000000047431,BOGTONG BOLO BARANGAY HEALTH STATION,Barangay Health Station,Government,REGION I (ILOCOS REGION),0100000000,PANGASINAN,0105500000,MANGATAREM,0105527000,BOGTONG BOLO,0105527007,15.7518301,120.3254776
DOH000000000047430,CABAYUGAN BARANGAY HEALTH STATION,Barangay Health Station,Government,REGION I (ILOCOS REGION),0100000000,PANGASINAN,0105500000,MANGATAREM,0105527000,CABAYUGAN,0105527024,15.7368402,120.3486023
DOH000000000047429,TAKIPAN BARANGAY HEALTH STATION,Barangay Health Station,Government,REGION I (ILOCOS REGION),0100000000,PANGASINAN,0105500000,MANGATAREM,0105527000,TAKIPAN,0105527076,15.7326603,120.3461838
DOH000000000047428,DACAP SUR BARANGAY HEALTH STATION,Barangay Health Station,Government,REGION I (ILOCOS REGION),0100000000,PANGASINAN,0105500000,BANI,0105508000,DACAP SUR,0105508010,16.2308292,119.8003616
DOH000000000047427,DACAP NORTE BARANGAY HEALTH STATION,Barangay Health Station,Government,REGION I (ILOCOS REGION),0100000000,PANGASINAN,0105500000,BANI,0105508000,DACAP NORTE,0105508009,16.2482491,119.8134003
DOH000000000047426,CALABENG BARANGAY HEALTH STATION,Barangay Health Station,Government,REGION I (ILOCOS REGION),0100000000,PANGASINAN,0105500000,BANI,0105508000,CALABENG,0105508027,16.2350502,119.8348312
DOH000000000047425,DULACAC BARANGAY HEALTH STATION,Barangay Health Station,Government,REGION I (ILOCOS REGION),0100000000,PANGASINAN,0105500000,CITY OF ALAMINOS,0105503000,DULACAC,0105503012,16.1406994,119.9234009
DOH000000000047424,STA. MARIA BARANGAY HEALTH STATION,Barangay Health Station,Government,REGION I (ILOCOS REGION),0100000000,PANGASINAN,0105500000,CITY OF ALAMINOS,0105503000,SANTA MARIA,0105503032,16.1546993,119.922699
DOH000000000047423,AMANGBANGAN BARANGAY HEALTH STATION,Barangay Health Station,Government,REGION I (ILOCOS REGION),0100000000,PANGASINAN,0105500000,CITY OF ALAMINOS,0105503000,AMANGBANGAN,0105503003,16.1644993,119.9168015
DOH000000000047422,TIEP BARANGAY HEALTH STATION,Barangay Health Station,Government,REGION I (ILOCOS REGION),0100000000,PANGASINAN,0105500000,BANI,0105508000,TIEP,0105508023,16.2362499,119.8602905
DOH000000000047421,MASIDEM BARANGAY HEALTH STATION,Barangay Health Station,Government,REGION I (ILOCOS REGION),0100000000,PANGASINAN,0105500000,BANI,0105508000,MASIDEM,0105508014,16.1959591,119.8783493
DOH000000000047420,TAWIN-TAWIN BARANGAY HEALTH STATION,Barangay Health Station,Government,REGION I (ILOCOS REGION),0100000000,PANGASINAN,0105500000,CITY OF ALAMINOS,0105503000,TAWINTAWIN,0105503035,16.1716995,119.9250031
DOH000000000047419,ARWAS BARANGAY HEALTH STATION,Barangay Health Station,Government,REGION I (ILOCOS REGION),0100000000,PANGASINAN,0105500000,BANI,0105508000,ARWAS,0105508003,16.2000809,119.865509
DOH000000000047418,SAN MIGUEL BARANGAY HEALTH STATION,Barangay Health Station,Government,REGION I (ILOCOS REGION),0100000000,PANGASINAN,0105500000,BANI,0105508000,SAN MIGUEL,0105508020,,
